STATE,HOSPITAL,CITY,ZIPCODE,CERT_DESIGNATION,CERT_ORG,OBJECTID,HOSPITAL_LAT,HOSPITAL_LONG,
Alabama,Wiregrass Medical Center ,Geneva,36340,Level III,State,251,31.04902,-85.89128,
Alabama,Walker Baptist Medical Center ,Jasper,35501,Level III,State,249,33.84213,-87.23573,
Alabama,USA Health University Hospital,Mobile,36617,Comprehensive Stroke Center,The Joint Commission,341,30.70736,-88.09825,
Alabama,University of Alabama at Birmingham,Birmingham,35249,Comprehensive Stroke Center,The Joint Commission,173,33.50208,-86.80632,
Alabama,UAB Medical West ,Bessemer,35022,Level III,State,246,33.37248,-86.9904,
Alabama,Troy Regional Medical Center ,Troy,36081,Level III,State,242,31.78136,-85.94555,
Alabama,Thomas Hospital ,Fairhope,36532,Level III,State,238,30.52057598,-87.88869324,
Alabama,Stringfellow Memorial Hospital,Anniston,36207,Level II,State,340,33.66769,-85.82384,
Alabama,St. Vincent’s East,Birmingham,35235,Level II,State,339,33.59567,-86.66767,
Alabama,St. Vincent’s Chilton ,Clanton,35045,Level III,State,234,32.838265,-86.63324,
Alabama,St. Vincent’s Blount,Oneonta,35121,Level II,State,338,33.93006,-86.49381,
Alabama,St. Vincent's Birmingham,Birmingham,35205,Level II,State,337,33.50781,-86.78886,
Alabama,Springhill Medical Center,Mobile,36608,Level II,State,336,30.68513,-88.13143,
Alabama,Southeast Health,Dothan,36301,Comprehensive Stroke Center,DNV GL,219,31.21588,-85.36301,
Alabama,South Baldwin Regional Medical Center,Foley,36535,Primary Stroke Center,The Joint Commission,335,30.42579,-87.68442,
Alabama,Shoals Hospital ,Muscle Shoals,35661,Level III,State,231,34.74688,-87.6763,
Alabama,Shelby Baptist Medical Center,Alabaster,35007,Primary Stroke Center,The Joint Commission,334,33.2521,-86.81359,
Alabama,Russell Medical Center ,Alexander City,35010,Level III,State,229,32.93081,-85.96984,
Alabama,Riverview Regional Medical Center,Gadsden,35901,Level II,State,333,34.00417,-86.00309,
Alabama,Regional Medical Center ,Greenville,36037,Level III,State,227,31.82734,-86.62755,
Alabama,Providence Hospital,Mobile,36608,Primary Stroke Center,The Joint Commission,332,30.67673843,-88.19717998,
Alabama,Princeton Baptist Medical Center,Birmingham,35211,Primary Stroke Center,The Joint Commission,331,33.49853,-86.84632,
Alabama,Prattville Baptist Hospital,Prattville,36067,Level III,State,225,32.46411,-86.45168,
Alabama,Northeast Alabama Regional Medical Center,Anniston,36207,Level II,State,329,33.6615643,-85.8186995,
Alabama,North Baldwin Infirmary ,Bay Minette,36507,Level III,State,223,30.90364,-87.78466,
Alabama,North Alabama Medical Center,Florence,35630,Primary Stroke Center,The Joint Commission,330,34.80438,-87.65104,
Alabama,Monroe County Hospital ,Monroeville,36460,Level III,State,220,31.49792,-87.32066,
Alabama,Mobile Infirmary,Mobile,36607,Primary Stroke Center,The Joint Commission,311,30.69218729,-88.08126809,
Alabama,Mizell Memorial Hospital ,Opp,36467,Level III,State,216,31.29215,-86.25509,
Alabama,Medical Center Enterprise,Enterprise,36330,Acute Stroke Ready,The Joint Commission,174,31.31874,-85.85515,
Alabama,Medical Center Barbour,Eufaula,36027,Level III,State,171,31.88871,-85.15617,
Alabama,Marshall Medical Center South,Boaz,35957,Level III,State,168,34.22165,-86.16005,
Alabama,Marshall Medical Center North,Guntersville,35976,Level III,State,165,34.36464,-86.42198,
Alabama,Madison Hospital ,Madison,35758,Level III,State,106,34.74834,-86.76531,
Alabama,Lakeland Community Hospital ,Haleyville,35565,Level III,State,103,34.24107,-87.59134,
Alabama,Jackson Medical Center ,Jackson,36545,Level III,State,361,31.53168,-87.89546,
Alabama,Jackson Hospital,Montgomery,36106,Primary Stroke Center,The Joint Commission,247,32.3669,-86.28485,
Alabama,Huntsville Hospital,Huntsville,35801,Primary Stroke Center,The Joint Commission,243,34.72001,-86.57529,
Alabama,Highlands Medical Center ,Scottsboro,35768,Level III,State,360,34.66178,-86.04742,
Alabama,Helen Keller Hospital,Sheffield,35660,Level II,State,239,34.74586,-87.69947,
Alabama,Grove Hill Memorial Hospital ,Grove Hill,36451,Level III,State,359,31.69423,-87.77625,
Alabama,Grandview Medical Center,Birmingham,35243,Primary Stroke Center,The Joint Commission,235,33.43322,-86.71772,
Alabama,Gadsden Regional Medical Center,Gasden,35903,Primary Stroke Center,The Joint Commission,232,34.00829,-85.96629,
Alabama,Flowers Hospital,Dothan,36305,Primary Stroke Center,The Joint Commission,230,31.2381,-85.45711,
Alabama,Fayette Medical Center ,Fayette,35555,Level III,State,358,33.70798,-87.82413,
Alabama,East Alabama Medical Center ,Opelika,36801,Level III,State,357,32.63889,-85.40554,
Alabama,DeKalb Regional Medical Center ,Fort Payne,35958,Primary Stroke Center,The Joint Commission,356,34.44091,-85.75603,
Alabama,Decatur Morgan Parkway ,Decatur,35603,Level III,State,355,34.57335363,-87.07108239,
Alabama,Decatur Morgan Hospital ,Decatur,35601,Level III,State,354,34.6064735,-86.9813904,
Alabama,DCH Regional Medical Center,Tuscaloosa,35401,Level II,State,228,33.20521,-87.52545,
Alabama,Dale Medical Center ,Ozark,36360,Level III,State,353,31.45182,-85.63109,
Alabama,D.W. McMillan Memorial Hospital ,Brewton,36426,Level III,State,352,31.12698,-87.07298,
Alabama,Cullman Regional Medical Center ,Cullman,35058,Level III,State,351,34.20098,-86.80505,
Alabama,Crestwood Medical Center,Huntsville,35801,Primary Stroke Center,The Joint Commission,226,34.69281,-86.57181,
Alabama,Crenshaw Community Hospital ,Luverne,36049,Level III,State,350,31.69335,-86.26509,
Alabama,Coosa Valley Medical Center ,Sylacauga,35150,Level III,State,349,33.16461,-86.25504,
Alabama,Community Hospital,Tallassee,36078,Level III,State,348,32.5343,-85.91222,
Alabama,Citizens Baptist Medical Center,Talladega,35160,Level III,State,347,33.44002,-86.09088,
Alabama,Bryan W. Whitfield Memorial Hospital,Demopolis,36732,Level III,State,346,32.50479,-87.83668,
Alabama,Brookwood Medical Center Freestanding Emergency Department,Hoover,35242,Level III,State,345,33.41917064,-86.71969361,
Alabama,Brookwood Baptist Medical Center,Birmingham,35209,Primary Stroke Center,The Joint Commission,224,33.46347,-86.77668,
Alabama,Birmingham VA Medical Center,Birmingham,35233,Level II,State,222,33.5053,-86.807435,
Alabama,Baptist Medical Center South,Montgomery,36116,Primary Stroke Center,The Joint Commission,221,32.32751,-86.27742,
Alabama,Baptist Medical Center East,Montgomery,36117,Level III,State,344,32.3762,-86.17456,
Alabama,Athens Limestone Hospital,Athens,35611,Level III,State,343,34.80387,-86.97899,
Alabama,Andalusia Health,Andalusia,36420,Level III,State,342,31.29629,-86.49483,
Alaska,Providence Alaska Medical Center,Anchorage,99519,Primary Stroke Center,The Joint Commission,170,61.18764,-149.8191,
Alaska,Mat-Su Regional Medical Center,Palmer,99645,Acute Stroke Ready Hospital             ,The Joint Commission,81,61.56297,-149.25781,
Alaska,Alaska Regional Hospital,Anchorage,99508,Primary Stroke Center,The Joint Commission,140,61.21031,-149.82845,
Arizona,Tucson Medical Center,Tucson,85712,Comprehensive Stroke Center,HFAP,276,32.25224,-110.87984,
Arizona,Summit Healthcare Association,Show Low,85901,Primary Stroke Center,DNV GL,268,34.2585298,-110.0836179,
Arizona,Scottsdale Shea Medical Center,Scottsdale ,85260,Primary Stroke Center,DNV GL,266,33.58102,-111.88528,
Arizona,Scottsdale Osborn Medical Center,Scottsdale ,85251,Primary Stroke Center,DNV GL,264,33.48848,-111.92291,
Arizona,Northwest Medical Center,Tucson,85741,Primary Stroke Center,HFAP,274,32.32,-111.00978,
Arizona,Mountain Vista Medical Center,Mesa,85209,Primary Stroke Center,DNV GL,261,33.39128,-111.61125,
Arizona,John C. Lincoln North Mountain Hospital,Phoenix,85020,Primary Stroke Center,DNV GL,259,33.569355,-112.06737,
Arizona,John C. Lincoln Medical Center,Phoenix,85020,Primary Stroke Center,DNV GL,257,33.56946,-112.07058,
Arizona,HonorHealth Deer Valley Medical Center,Phoenix,85027,Primary Stroke Center,DNV GL,255,33.66589,-112.11594,
Arizona,Flagstaff Medical Center,Flagstaff,86001,Primary Stroke Center,DNV GL,253,35.20858,-111.64509,
Arizona,Copper Queen Community Hospital Douglas,Douglas,85607,Stroke Ready,HFAP,272,31.34448,-109.549995,
Arizona,Copper Queen Community Hospital Bisbee,Bisbee,85603,Stroke Ready,HFAP,270,31.4178,-109.88307,
Arkansas,WRMC Cherokee Village,Cherokee Village,72529,Stroke Ready,State,114,36.2700576,-91.5717229,
Arkansas,White River Medical Center,Batesville,72501,Stroke Ready,State,113,35.76804,-91.63408,
Arkansas,Washington Regional Medical Center,Fayetteville,72703,Comprehensive Stroke Center,The Joint Commission,117,36.10948,-94.15814,
Arkansas,UAMS Medical Center,Little Rock,72205,Comprehensive Stroke Center,The Joint Commission,116,34.74435234,-92.38446501,
Arkansas,St. Mary's Regional Medical Center,Russellville,72801,Stroke Ready,State,112,35.27644,-93.136045,
Arkansas,St. Bernards Medical Center,Jonesboro,72401,Stroke Ready,State,111,35.83633,-90.70249,
Arkansas,Ozark Health Medical Center,Clinton,72031,Stroke Ready,State,110,35.592425,-92.4603,
Arkansas,Ouachita County Medical Center,Camden,71701,Stroke Ready,State,109,33.57548,-92.83583,
Arkansas,Northwest Arkansas Hospitals,Springdale,72764,Primary Stroke Center,The Joint Commission,120,36.16255,-94.19013,
Arkansas,National Park Medical Center,Hot Springs,71901,Stroke Ready,State,108,34.486,-93.03521,
Arkansas,Mercy Hospital Waldron,Waldron,72958,Stroke Ready,State,107,34.89473,-94.10615,
Arkansas,Mercy Hospital Paris,Paris,72855,Stroke Ready,State,104,35.28903,-93.72505,
Arkansas,Mercy Hospital Ozark,Ozark,72949,Stroke Ready,State,327,35.48607,-93.83357,
Arkansas,Mercy Hospital Northwest Arkansas,Rogers,72758,Acute Stroke Ready Hospital,The Joint Commission,115,36.3096,-94.183,
Arkansas,Mercy Hospital Fort Smith,Fort Smith,72903,Primary Stroke Center,The Joint Commission,118,35.35379,-94.35294,
Arkansas,Mercy Hospital Booneville,Booneville,72927,Stroke Ready,State,326,35.14045,-93.93466,
Arkansas,Medical Center of South Arkansas,El Dorado ,71730,Stroke Ready,State,325,33.21852,-92.6723,
Arkansas,Johnson Regional Medical Center,Clarksville,72830,Stroke Ready,State,324,35.46189,-93.44525,
Arkansas,Fulton County Hospital,Salem,72576,Stroke Ready,State,323,36.38294,-91.81079,
Arkansas,Forrest City Medical Center,Forrest City,72335,Stroke Ready,State,322,35.02609,-90.77931,
Arkansas,"Five Rivers Medical Center (Pocahontas, AR)",Pocahontas,72455,Stroke Ready,State,321,36.2666518,-90.9712888,
Arkansas,Drew Memorial Hospital,Monticello,71655,Stroke Ready,State,320,33.630865,-91.788945,
Arkansas,Dallas County Medical Center,Fordyce,71742,Stroke Ready,State,319,33.81084,-92.42505,
Arkansas,Conway Regional Medical Center,Conway,72034,Stroke Ready,State,318,35.08592,-92.45724,
Arkansas,Chicot Memorial Medical Center,Lake Village,71653,Stroke Ready,State,317,33.3062,-91.29037,
Arkansas,CHI St. Vincent Hot Springs,Hot Springs,71913,Stroke Ready,State,316,34.46783,-93.06666,
Arkansas,Baxter Regional Medical Center,Mountain Home,72653,Stroke Ready,State,315,36.34297,-92.39585,
Arkansas,Baptist Health Medical Center - Stuttgart,Stuttgart,72160,Stroke Ready,State,314,34.51764,-91.55932,
Arkansas,Baptist Health Medical Center - North Little Rock,North Little Rock,72117,Stroke Ready,State,313,34.78353,-92.22212,
Arkansas,Baptist Health Medical Center - Little Rock,Little Rock,72205,Primary Stroke Center,The Joint Commission,119,34.74457,-92.38198,
Arkansas,Baptist Health Medical Center - Hot Spring County,Malvern,72104,Stroke Ready,State,312,34.35914,-92.78565,
Arkansas,Baptist Health Medical Center - Heber Springs,Heber Springs,72543,Stroke Ready,State,282,35.50453,-92.00071,
Arkansas,Baptist Health Medical Center - Arkadelphia,Arkadelphia,71923,Stroke Ready,State,280,34.12318,-93.08849,
Arkansas,Ashley County Medical Center,Crossett,71635,Stroke Ready,State,278,33.13824,-91.93917,
California,Zuckerberg San Francisco General Hospital,San Francisco,94110,Primary Stroke Center,The Joint Commission,40,37.75563,-122.4051,
California,White Memorial Medical Center,Los Angeles,90033,Primary Stroke Center,The Joint Commission,18,34.04914,-118.21854,
California,West Hills Hospital and Medical Center,West Hills,91307,Primary Stroke Center Plus,DNV GL,71,34.20301,-118.6286,
California,Washington Hospital Healthcare System,Fremont,94538,Primary Stroke Center,The Joint Commission,17,37.55712,-121.98036,
California,Ventura County Medical Center,Ventura,93003,Primary Stroke Center,The Joint Commission,366,34.27716,-119.25269,
California,Valley Presbyterian Hospital,Van Nuys,91405,Primary Stroke Center,DNV GL,24,34.19494,-118.46319,
California,USC Verdugo Hills Hospital,Glendale,91280,Primary Stroke Center,DNV GL,23,34.20413,-118.21588,
California,"University of California, Davis Medical Center",Sacramento,95817,Primary Stroke Center,The Joint Commission,50,38.5558,-121.45751,
California,University of California San Diego Medical Center,San Diego,92103,Comprehensive Stroke Center,The Joint Commission,137,32.75388,-117.16555,
California,University of California Irvine,Orange,92868,Comprehensive Stroke Center,The Joint Commission,143,33.6425,-117.83685,
California,Universal Health Services of Rancho Springs,Murrieta,92562,Primary Stroke Center,The Joint Commission,368,33.53215,-117.177545,
California,Ukiah Adventist Hospital,Ukiah,95482,Primary Stroke Center,The Joint Commission,328,39.15216,-123.20274,
California,UCSF Medical Center,San Francisco,94143,Primary Stroke Center,The Joint Commission,41,37.76140116,-122.4583238,
California,UCSF Medical Center,San Francisco,94143,Comprehensive Stroke Center,The Joint Commission,131,37.76140116,-122.4583238,
California,Twin Cities Community Hospital,Templeton,93465,Primary Stroke Center,The Joint Commission,250,35.55535,-120.72066,
California,Tri-City Medical Center,Oceanside,92056,Thrombectomy Capable Stroke Center,The Joint Commission,391,33.18425,-117.29178,
California,Torrance Memorial Medical Center,Torrance,90505,Comprehensive Stroke Center,DNV GL,63,33.81093,-118.34442,
California,The Hospital Committee for the Livermore-Pleasanton Areas,Pleasanton,94588,Primary Stroke Center,The Joint Commission,286,37.693855,-121.90376,
California,Temecula Valley Hospital,Temecula,92592,Primary Stroke Center,The Joint Commission,385,33.48049,-117.10598,
California,Sutter Valley Hospitals,Auburn,95602,Primary Stroke Center,The Joint Commission,7,38.9582644,-121.1047657,
California,Sutter Valley Hospitals,Los Banos,93635,Primary Stroke Center,The Joint Commission,20,37.0749267,-120.8432869,
California,Sutter Valley Hospitals,Modesto,95355,Primary Stroke Center,The Joint Commission,154,37.674355,-120.947735,
California,Sutter Valley Hospitals,Sacramento,95816,Primary Stroke Center,The Joint Commission,156,38.57013504,-121.4729449,
California,Sutter Valley Hospitals,Roseville,95661,Primary Stroke Center,The Joint Commission,236,38.7255449,-121.251449,
California,Sutter Valley Hospitals,Jackson,95642,Primary Stroke Center,The Joint Commission,262,38.35359554,-120.7772754,
California,Sutter Valley Hospitals,Davis,95616,Primary Stroke Center,The Joint Commission,306,38.5474,-121.74053,
California,Sutter Valley Hospitals,Tracy,95376,Primary Stroke Center,The Joint Commission,310,37.73705,-121.427975,
California,Sutter Valley Hospitals,Vallejo,94589,Primary Stroke Center,The Joint Commission,364,38.149895,-122.261195,
California,Sutter Bay Hospitals,Novato,94945,Primary Stroke Center,The Joint Commission,12,38.111065,-122.57007,
California,Sutter Bay Hospitals,Santa Rosa,95403,Primary Stroke Center,The Joint Commission,60,38.46815,-122.762705,
California,Sutter Bay Hospitals,Lakeport,95453,Primary Stroke Center,The Joint Commission,281,39.046095,-122.91967,
California,Sutter Bay Hospitals,Castro Valley,94546,Primary Stroke Center,The Joint Commission,299,37.69629,-122.080915,
California,Sutter Bay Hospitals,Oakland,94609,Primary Stroke Center,The Joint Commission,381,37.83143,-122.26383,
California,Sutter Bay Hospitals,Burlingame,94010,Thrombectomy Capable Stroke Center,The Joint Commission,393,37.5919,-122.36843,
California,Stanford Health Care,Stanford,94305,Comprehensive Stroke Center,The Joint Commission,135,37.42907,-122.16978,
California,St. Mary Medical Center,Apple Valley,92307,Primary Stroke Center,The Joint Commission,4,34.541905,-117.26681,
California,St. Mary Medical Center,Long Beach,90813,Thrombectomy Capable Stroke Center,The Joint Commission,398,33.77997,-118.18585,
California,St. Jude Medical Center,Fullerton,92835,Comprehensive Stroke Center,The Joint Commission,145,33.89463,-117.92718,
California,St. Joseph Hospital,Orange,92863,Primary Stroke Center,The Joint Commission,11,33.80532,-117.835685,
California,St. Joseph Health Northern California,Napa,94558,Primary Stroke Center,The Joint Commission,14,38.3282246,-122.3281146,
California,St. John's Regional Medical Center,Oxnard,93030,Thrombectomy Capable Stroke Center,The Joint Commission,392,34.21674,-119.15631,
California,St. John's Pleasant Valley Hospital,Camarillo,93010,Primary Stroke Center,The Joint Commission,258,34.24358,-119.01991,
California,St. Francis Medical Center,Lynwood,90262,Primary Stroke Center,The Joint Commission,22,33.92984,-118.2031,
California,St Joseph Health Northern CA,Santa Rosa,95405,Primary Stroke Center,The Joint Commission,59,38.434335,-122.666055,
California,SRM Alliance Hospital Services,Petaluma,94954,Acute Stroke Ready Hospital             ,The Joint Commission,125,38.2648131,-122.6408469,
California,South Coast Global Medical Center,Santa Ana,92704,Primary Stroke Center,HFAP,70,33.71109,-117.88427,
California,Simi Valley Hospital and Health Care Services,Simi Valley,93065,Primary Stroke Center,The Joint Commission,153,34.26765,-118.78299,
California,Sierra Vista Hospital,San Luis Obispo,93405,Thrombectomy Capable Stroke Center,The Joint Commission,389,35.260325,-120.694595,
California,Sierra Nevada Memorial-Miners Hospital,Grass Valley,95945,Primary Stroke Center,The Joint Commission,31,39.21548,-121.061695,
California,Sherman Oaks Hospital,Sherman Oaks,91403,Primary Stroke Center,The Joint Commission,139,34.1603,-118.44941,
California,Sharp Memorial Hospital,San Diego,92123,Primary Stroke Center,The Joint Commission,237,32.80006,-117.15517,
California,Sharp Coronado Hospital,Coronado,92118,Acute Stroke Ready Hospital             ,The Joint Commission,122,32.69432,-117.16791,
California,Sharp Chula Vista Medical Center,Chula Vista,91911,Primary Stroke Center,The Joint Commission,214,32.61887,-117.02267,
California,Seton Medical Center,Daly City,94015,Primary Stroke Center,The Joint Commission,37,37.6878672,-122.4766383,
California,Scripps Mercy Hospital,San Diego,92103,Primary Stroke Center,The Joint Commission,54,32.75151,-117.16085,
California,Scripps Memorial Hospital La Jolla,La Jolla,92037,Comprehensive Stroke Center,The Joint Commission,147,32.8851,-117.22368,
California,Scripps Memorial Hospital Encinitas,Encinitas,92024,Primary Stroke Center,The Joint Commission,252,33.03726,-117.28342,
California,Santa Ynez Valley Cottage Hospital,Solvang,93463,Acute Stroke Ready Hospital             ,The Joint Commission,126,34.60209,-120.12592,
California,Santa Monica-UCLA Medical Center and Orthopaedic Hospital,Santa Monica,90404,Primary Stroke Center,The Joint Commission,58,34.02675,-118.48614,
California,Santa Clara Valley Medical Center,San Jose,95128,Primary Stroke Center,The Joint Commission,263,37.31342,-121.93421,
California,Santa Barbara Cottage Hospital,Santa Barbara,93105,Comprehensive Stroke Center,The Joint Commission,152,34.42953,-119.72333,
California,San Ramon Regional Medical Center,San Ramon,94583,Primary Stroke Center,The Joint Commission,241,37.77607,-121.9583,
California,San Joaquin General Hospital,French Camp,95231,Primary Stroke Center,The Joint Commission,301,37.88664,-121.28308,
California,San Joaquin Community Hospital,Bakersfield,93301,Primary Stroke Center,The Joint Commission,9,35.37884,-119.016405,
California,San Antonio Regional Hospital,Upland,91786,Primary Stroke Center,The Joint Commission,362,34.10064,-117.63821,
California,Salinas Valley Memorial Healthcare System,Salinas,93901,Primary Stroke Center,The Joint Commission,51,36.65909,-121.64629,
California,Saint Francis Memorial Hospital,San Francisco,94109,Primary Stroke Center,The Joint Commission,38,37.78977,-122.41686,
California,Saint Agnes Medical Center,Fresno,93720,Primary Stroke Center,The Joint Commission,303,36.8353,-119.76574,
California,Saddleback Memorial Medical Center,Laguna Hills,92653,Thrombectomy Capable Stroke Center,The Joint Commission,396,33.6238464,-117.736082,
California,Ronald Reagan UCLA Medical Center,Los Angeles,90095,Comprehensive Stroke Center,The Joint Commission,141,34.07329,-118.44482,
California,Riverside University Health System - Medical Center,Moreno Valley,92555,Primary Stroke Center,The Joint Commission,5,33.9119,-117.19569,
California,Riverside Community Hospital,Riverside,92501,Comprehensive Stroke Center,DNV GL,62,33.9765,-117.38146,
California,Rideout Memorial Hospital,Marysville,95901,Primary Stroke Center,The Joint Commission,265,39.143975,-121.592645,
California,Regional Medical Center of San Jose,San Jose,95116,Comprehensive Stroke Center,The Joint Commission,132,37.36271,-121.84786,
California,Redlands Community Hospital,Redlands,92373,Primary Stroke Center,The Joint Commission,45,34.03678,-117.20577,
California,Providence Tarzana Medical Center,Tarzana,91356,Primary Stroke Center,The Joint Commission,375,34.16988,-118.53123,
California,Providence Saint John's Health Center,Santa Monica,90404,Thrombectomy Capable Stroke Center,The Joint Commission,388,34.03006,-118.47833,
California,Providence Holy Cross Medical Center,Mission Hills,91345,Primary Stroke Center Plus,DNV GL,66,34.28026,-118.46,
California,Providence Health System - Southern California,Torrance,90503,Comprehensive Stroke Center,The Joint Commission,151,33.84136,-118.351545,
California,Providence Health System - Southern California,San Pedro,90732,Primary Stroke Center,The Joint Commission,157,33.72969,-118.31192,
California,Providence Health System - Southern California,Burbank,91505,Thrombectomy Capable Stroke Center,The Joint Commission,399,34.155475,-118.34188,
California,Prime Healthcare Services-Shasta,Redding,96001,Primary Stroke Center,The Joint Commission,379,40.58254,-122.391535,
California,Prime Healthcare Paradise Valley,National City,91950,Primary Stroke Center,The Joint Commission,15,32.68562,-117.08221,
California,Port City Operating Company,Stockton,95204,Primary Stroke Center,The Joint Commission,248,37.974255,-121.296775,
California,Pomona Valley Hospital Medical Center,Pomona,91767,Comprehensive Stroke Center,The Joint Commission,134,34.07709,-117.75062,
California,Pomerado Hospital,Poway,92064,Primary Stroke Center,The Joint Commission,155,32.99339504,-117.05802,
California,PIH Health Hospital-Downey,Downey,90241,Primary Stroke Center,The Joint Commission,307,33.93443,-118.13117,
California,PIH Health Hospital - Whittier,Whittier,90602,Comprehensive Stroke Center,The Joint Commission,127,33.96979,-118.04935,
California,PIH Health Good Samaritan Hospital,Los Angeles,90017,Comprehensive Stroke Center,DNV GL,61,34.05465,-118.26551,
California,Pasadena Hospital Association,Pasadena,91109,Comprehensive Stroke Center,The Joint Commission,136,34.15518,-118.15438,
California,Palomar Medical Center,Escondido,92029,Primary Stroke Center,The Joint Commission,256,33.12208,-117.12039,
California,Orange County Global Medical Center,Santa Ana,92705,Comprehensive Stroke Center,HFAP,69,33.7552,-117.83304,
California,NorthBay Healthcare Group,Fairfield,94533,Primary Stroke Center,The Joint Commission,309,38.26174,-122.04657,
California,North Sonoma County Healthcare District,Healdsburg,95448,Primary Stroke Center,The Joint Commission,387,38.61417,-122.86653,
California,Mission Hospital Regional Medical Center,Mission Viejo,92691,Comprehensive Stroke Center,The Joint Commission,142,33.617065,-117.68166,
California,Mission Community Hospital,Panorama City,91402,Primary Stroke Center,The Joint Commission,35,34.22041,-118.45668,
California,Methodist Hospital of Southern California,Arcadia,91007,Comprehensive Stroke Center,DNV GL,34,34.13402,-118.04201,
California,Mercy San Juan Medical Center,Carmichael,95608,Comprehensive Stroke Center,The Joint Commission,150,38.6707,-121.31384,
California,Mercy Medical Center,Merced,95340,Primary Stroke Center,The Joint Commission,27,37.33948,-120.46694,
California,"Mercy Hospital, Dignity Health",Bakersfield,93301,Primary Stroke Center,The Joint Commission,105,35.37279,-119.0276,
California,Mercy Hospital of Folsom,Folsom,95630,Primary Stroke Center,The Joint Commission,308,38.67039,-121.14552,
California,Mercy General Hospital,Sacramento,95819,Primary Stroke Center,The Joint Commission,49,38.57134,-121.45293,
California,Memorial Hospital of Gardena,Gardena,90247,Primary Stroke Center,The Joint Commission,295,33.89307,-118.29505,
California,Marshall Medical Center,Placerville,95667,Primary Stroke Center,The Joint Commission,46,38.72459,-120.79119,
California,Marin General Hospital,Greenbrae,94904,Primary Stroke Center,The Joint Commission,56,37.94752,-122.53545,
California,Marian Regional Medical Center,Santa Maria,93454,Primary Stroke Center,The Joint Commission,260,34.95098,-120.41322,
California,Los Robles Hospital and Medical Center,Thousand Oaks,91360,Comprehensive Stroke Center,DNV GL,32,34.2211033,-118.8700415,
California,Los Alamitos Medical Center,Los Alamitos,90720,Comprehensive Stroke Center,DNV GL,30,33.80439,-118.06662,
California,Long Beach Memorial Medical Center,Long Beach,90806,Comprehensive Stroke Center,The Joint Commission,149,33.80796,-118.18847,
California,Loma Linda University Medical Center - Murrieta,Murrieta,92563,Primary Stroke Center,The Joint Commission,382,33.61471,-117.17,
California,Loma Linda University Medical Center,Loma Linda,92354,Comprehensive Stroke Center,The Joint Commission,148,34.04948,-117.26366,
California,Lodi Memorial Hospital Association,Lodi,95240,Primary Stroke Center,The Joint Commission,287,38.135485,-121.275655,
California,Lancaster Hospital Corporation,Palmdale,93551,Primary Stroke Center,The Joint Commission,285,34.58373021,-118.1470906,
California,Lakewood Regional Medical Center,Lakewood,90712,Primary Stroke Center Plus,DNV GL,72,33.85978,-118.14824,
California,Kern Medical Center,Bakersfield,93306,Primary Stroke Center,The Joint Commission,8,35.38258,-118.97213,
California,Kaweah Delta Health Care District,Visalia,93291,Primary Stroke Center,The Joint Commission,367,36.32749,-119.29418,
California,"Kaiser Foundation Hospitals, Panorama City Medical Center",Panorama City,91402,Primary Stroke Center,The Joint Commission,365,34.221505,-118.45316,
California,Kaiser Foundation Hospitals-Baldwin Park Medical Center,Baldwin Park,91706,Primary Stroke Center,The Joint Commission,373,34.085035,-117.96626,
California,Kaiser Foundation Hospital-San Leandro,San Leandro,94577,Primary Stroke Center,The Joint Commission,386,37.72073,-122.156425,
California,Kaiser Foundation Hospital-Orange County-Anaheim,Anaheim,92806,Primary Stroke Center,The Joint Commission,3,33.85426,-117.86527,
California,Kaiser Foundation Hospital-Moreno Valley Medical Center,Moreno Valley,92555,Primary Stroke Center,The Joint Commission,378,33.93843,-117.201105,
California,Kaiser Foundation Hospital South San Francisco,South San Francisco,94080,Primary Stroke Center,The Joint Commission,240,37.653995,-122.41307,
California,Kaiser Foundation Hospital and Rehabilitation Center-Vallejo,Vallejo,94589,Primary Stroke Center,The Joint Commission,363,38.149895,-122.261195,
California,Kaiser Foundation Hospital - Woodland Hills,Woodland Hills,91367,Primary Stroke Center,The Joint Commission,372,34.18284,-118.595765,
California,Kaiser Foundation Hospital - West Los Angeles,Los Angeles,90034,Primary Stroke Center,The Joint Commission,294,34.0365131,-118.3824203,
California,Kaiser Foundation Hospital - Walnut Creek,Walnut Creek,94596,Primary Stroke Center,The Joint Commission,215,37.90057,-122.062725,
California,Kaiser Foundation Hospital - Vacaville,Vacaville,95688,Primary Stroke Center,The Joint Commission,377,38.35541,-121.99344,
California,Kaiser Foundation Hospital - South Sacramento,Sacramento,95823,Primary Stroke Center,The Joint Commission,273,38.490743,-121.4563889,
California,Kaiser Foundation Hospital - South Bay,Harbor City,90710,Primary Stroke Center,The Joint Commission,289,33.793885,-118.2975,
California,Kaiser Foundation Hospital - Santa Rosa,Santa Rosa,95403,Primary Stroke Center,The Joint Commission,275,38.46815,-122.762705,
California,Kaiser Foundation Hospital - Santa Clara,Santa Clara,95051,Primary Stroke Center,The Joint Commission,57,37.35245,-121.987385,
California,Kaiser Foundation Hospital - San Rafael,San Rafael,94903,Primary Stroke Center,The Joint Commission,55,38.012395,-122.543135,
California,Kaiser Foundation Hospital - San Jose,San Jose,95119,Primary Stroke Center,The Joint Commission,47,37.2339875,-121.7958345,
California,Kaiser Foundation Hospital - San Francisco,San Francisco,94115,Primary Stroke Center,The Joint Commission,36,37.784895,-122.435125,
California,Kaiser Foundation Hospital - San Diego,San Diego,92120,Primary Stroke Center,The Joint Commission,283,32.789755,-117.092905,
California,Kaiser Foundation Hospital - Sacramento,Sacramento,95825,Comprehensive Stroke Center,The Joint Commission,130,38.599395,-121.40509,
California,Kaiser Foundation Hospital - Roseville,Roseville,95661,Primary Stroke Center,The Joint Commission,383,38.7255449,-121.251449,
California,Kaiser Foundation Hospital - Riverside,Riverside,92505,Primary Stroke Center,The Joint Commission,267,33.914765,-117.488795,
California,Kaiser Foundation Hospital - Redwood City,Redwood City,94063,Comprehensive Stroke Center,The Joint Commission,128,37.48549,-122.223965,
California,Kaiser Foundation Hospital - Oakland/Richmond,Oakland,94611,Primary Stroke Center,The Joint Commission,370,37.82624,-122.249975,
California,Kaiser Foundation Hospital - Manteca/Modesto,Manteca,95337,Primary Stroke Center,The Joint Commission,245,37.79307,-121.226665,
California,Kaiser Foundation Hospital - Los Angeles,Los Angeles,90027,Comprehensive Stroke Center,The Joint Commission,138,34.10482,-118.287425,
California,Kaiser Foundation Hospital - Fresno,Fresno,93720,Primary Stroke Center,The Joint Commission,369,36.86059,-119.742145,
California,Kaiser Foundation Hospital - Fremont Medical Center,Fremont,94538,Primary Stroke Center,The Joint Commission,290,37.532945,-121.96163,
California,Kaiser Foundation Hospital - Fontana,Fontana,92335,Primary Stroke Center,The Joint Commission,1,34.0825604,-117.4568971,
California,Kaiser Foundation Hospital - Downey Medical Center,Downey,90242,Primary Stroke Center,The Joint Commission,10,33.92098,-118.140225,
California,Kaiser Foundation Hospital - Antioch,Antioch,94531,Primary Stroke Center,The Joint Commission,374,37.9735155,-121.7693551,
California,John Muir Medical Center -- Walnut Creek Campus,Walnut Creek,94598,Comprehensive Stroke Center,The Joint Commission,129,37.91304,-122.04078,
California,John Muir Medical Center - Concord Campus,Concord,94520,Primary Stroke Center,The Joint Commission,304,37.9825,-122.03321,
California,John F Kennedy Memorial Hospital,Indio,92201,Primary Stroke Center,The Joint Commission,292,33.70676,-116.23402,
California,Huntington Beach Hospital,Huntington Beach,92647,Primary Stroke Center,The Joint Commission,291,33.70399,-117.98774,
California,Hoag Memorial Hospital Presbyterian,Newport Beach,92658,Comprehensive Stroke Center,DNV GL,19,33.63918,-117.8647,
California,Hoag Hospital Irvine,Irvine,92618,Primary Stroke Center,DNV GL,21,33.6613,-117.77204,
California,Henry Mayo Newhall Memorial Hospital,Valencia,91355,Primary Stroke Center,The Joint Commission,87,34.3907219,-118.5525377,
California,Hemet Valley Medical Center,Hemet,92543,Primary Stroke Center,HFAP,68,33.7511,-116.96062,
California,"HDMC Holdings, L. L. C.",Joshua Tree,92252,Acute Stroke Ready Hospital             ,The Joint Commission,123,34.137445,-116.31351,
California,Hazel Hawkins Memorial Hospital,Hollister,95023,Acute Stroke Ready Hospital             ,The Joint Commission,121,36.83492,-121.38624,
California,Hanford Community Hospital,Hanford,93230,Primary Stroke Center,The Joint Commission,288,36.327645,-119.642595,
California,Grossmont Hospital Corporation,La Mesa,91942,Primary Stroke Center,The Joint Commission,33,32.7665506,-117.0315458,
California,Grossmont Hospital Corporation,La Mesa,91942,Comprehensive Stroke Center,The Joint Commission,146,32.7665506,-117.0315458,
California,Good Samaritan Hospital,San Jose,95124,Comprehensive Stroke Center,The Joint Commission,133,37.25221,-121.94665,
California,Garfield Medical Center,Monterey Park,91754,Primary Stroke Center,The Joint Commission,13,34.06852,-118.1238,
California,Garden Grove Hospital and Medical Center,Garden Grove,92843,Primary Stroke Center,The Joint Commission,296,33.769375,-117.948535,
California,Fresno Community Hospital and Medical Center,Fresno,93721,Primary Stroke Center,The Joint Commission,302,36.736415,-119.78656,
California,French Hospital Medical Center,San Luis Obispo,93401,Primary Stroke Center,The Joint Commission,48,35.27838,-120.65064,
California,Fountain Valley Regional Hospital and Medical Center,Fountain Valley,92708,Thrombectomy Capable Stroke Center,The Joint Commission,395,33.71504,-117.93592,
California,Enloe Medical Center,Chico,95926,Primary Stroke Center,The Joint Commission,300,39.74162,-121.85101,
California,Encino Hospital Medical Center,Encino,91436,Primary Stroke Center,The Joint Commission,376,34.15748,-118.48672,
California,Emanate Health Medical Center,Covina,91723,Primary Stroke Center,The Joint Commission,218,34.08533,-117.885825,
California,Emanate Health Foothill Presbyterian Hospital,Glendora,91741,Acute Stroke Ready Hospital             ,The Joint Commission,124,34.13289,-117.87124,
California,El Camino Hospital,Mountain View,94040,Primary Stroke Center,The Joint Commission,279,37.36880981,-122.0817853,
California,El Camino Hospital,Mountain View,94040,Thrombectomy Capable Stroke Center,The Joint Commission,397,37.36880981,-122.0817853,
California,Eisenhower Medical Center,Rancho Mirage,92270,Primary Stroke Center,The Joint Commission,43,33.76465,-116.40555,
California,Doctors Medical Center of Modesto,Modesto,95350,Primary Stroke Center,The Joint Commission,254,37.66539,-120.99742,
California,Doctors Hospital of Riverside,Riverside,92503,Primary Stroke Center,The Joint Commission,6,33.91394,-117.45492,
California,Doctors Hospital of Manteca,Manteca,95336,Primary Stroke Center,The Joint Commission,25,37.80158,-121.19752,
California,"Dignity Health, Dominican Hospital Santa Cruz",Santa Cruz,95065,Primary Stroke Center,The Joint Commission,271,36.99016,-121.98357,
California,Dignity Health St. Mary's Medical Center,San Francisco,94117,Primary Stroke Center,The Joint Commission,39,37.77368,-122.45426,
California,Dignity Health Sequoia Hospital,Redwood City,94062,Primary Stroke Center,The Joint Commission,233,37.4801,-122.25392,
California,Dignity Health Northridge Haospital Medical Center,Northridge,91328,Thrombectomy Capable Stroke Center,The Joint Commission,390,34.22062,-118.53203,
California,Dignity Health,Los Angeles,90015,Primary Stroke Center,The Joint Commission,42,34.0372,-118.26562,
California,Dignity Health,Redding,96001,Primary Stroke Center,The Joint Commission,44,40.58254,-122.391535,
California,Dignity Health,San Bernardino,92404,Primary Stroke Center,The Joint Commission,52,34.15852,-117.25683,
California,Dignity Community Care,Sacramento,95823,Primary Stroke Center,The Joint Commission,217,38.490743,-121.4563889,
California,Dignity Community Care,Glendale,91204,Primary Stroke Center,The Joint Commission,297,34.13713,-118.260785,
California,Dignity Community Care,Woodland,95695,Primary Stroke Center,The Joint Commission,371,38.675605,-121.773945,
California,Desert Regional Medical Center,Palm Springs,92262,Comprehensive Stroke Center,DNV GL,28,33.83835,-116.54484,
California,Dameron Hospital Association,Stockton,95203,Primary Stroke Center,The Joint Commission,244,37.96149,-121.301,
California,County of Los Angeles Auditor Controller,Los Angeles,90033,Primary Stroke Center,The Joint Commission,29,34.0462143,-118.2195397,
California,Corona Regional Medical Center,Corona,92882,Primary Stroke Center,The Joint Commission,305,33.87303,-117.56711,
California,Community Memorial Hospital of San Buenaventura,Ventura,93003,Primary Stroke Center,DNV GL,16,34.26657,-119.21962,
California,Community Hospital of the Monterey Peninsula,Monterey,93940,Primary Stroke Center,The Joint Commission,298,36.5789,-121.91362,
California,Coast Plaza Doctors Hospital,Norwalk,90650,Primary Stroke Center,The Joint Commission,384,33.9056604,-118.0788454,
California,Chapman Global Medical Center,Orange,92869,Primary Stroke Center,HFAP,67,33.78855,-117.82636,
California,CHA Hollywood Presbyterian Medical Center,Los Angeles,90027,Primary Stroke Center,The Joint Commission,277,34.09579,-118.29152,
California,Centinela Hospital Medical Center,Inglewood,90301,Primary Stroke Center,The Joint Commission,293,33.95076,-118.34827,
California,Cedars-Sinai Health System,Los Angeles,90048,Comprehensive Stroke Center,The Joint Commission,144,34.076055,-118.377725,
California,California Pacific Medical Center-Van Ness Campus,San Francisco,94109,Primary Stroke Center,The Joint Commission,269,37.790105,-122.42059,
California,California Pacific Medical Center- Davies Campus,San Francisco,94117,Primary Stroke Center,The Joint Commission,380,37.768785,-122.44892,
California,Beverly Hospital,Montebello,90640,Primary Stroke Center,DNV GL,400,34.01501,-118.10063,
California,Bakersfield Memorial Hospital,Bakersfield,93301,Thrombectomy Capable Stroke Center,The Joint Commission,394,35.39194,-119.00678,
California,Arrowhead Regional Medical Center,Colton,92324,Primary Stroke Center,HFAP,65,34.07402,-117.35179,
California,Antelope Valley Hospital,Lancaster,93534,Primary Stroke Center,The Joint Commission,284,34.6878,-118.15798,
California,Anahein Global Medical Center,Anaheim,2805,Primary Stroke Center,HFAP,64,33.81966,-117.90969,
California,Alvarado Hospital Medical Center,San Diego,92120,Primary Stroke Center,The Joint Commission,53,32.77629,-117.0573,
California,Alameda Health System,Alameda,94501,Primary Stroke Center,The Joint Commission,2,37.76319,-122.25402,
California,Adventist Health Glendale,Glendale,91206,Comprehensive Stroke Center,DNV GL,26,34.1511,-118.22985,
Colorado,Valley View Hospital,Glenwood Springs,81601,Acute Stroke Ready,The Joint Commission,161,39.53227,-107.32251,
Colorado,University of Colorado Hospital Authority,Aurora,80045,Comprehensive Stroke Center,The Joint Commission,160,39.74194,-104.84147,
Colorado,UCHealth Pikes Peak Regional Hospital,Woodland Park,80863,Acute Stroke Ready,DNV GL,159,38.97394,-105.07432,
Colorado,UCHealth Memorial Hospital North,Colorado Springs,80920,Acute Stroke Ready,DNV GL,158,38.96805,-104.75323,
Colorado,UCHealth Memorial Hospital Central,Colorado Springs,80909,Comprehensive Stroke Center,DNV GL,102,38.83938,-104.79915,
Colorado,UCHealth Grandview Hospital,Colorado Springs,80918,Acute Stroke Ready,DNV GL,101,38.91125,-104.81657,
Colorado,UC Health Longs Peak Hospital,Longmont,80504,Primary Stroke Center,The Joint Commission,100,40.16165,-105.05831,
Colorado,Swedish Medical Center,Englewood,80113,Comprehensive Stroke Center,The Joint Commission,99,39.65396,-104.98117,
Colorado,St. Mary's Hospital and Medical Center,Grand Junction,81501,Primary Stroke Center,The Joint Commission,98,39.070335,-108.56534,
Colorado,St. Anthony North Health Campus,Westminster,80023,Primary Stroke Center,The Joint Commission,97,39.95579,-104.99198,
Colorado,St. Anthony Hospital,Lakewood,80228,Comprehensive Stroke Center,The Joint Commission,96,39.71622,-105.13005,
Colorado,Sky Ridge Medical Center,Lone Tree,80124,Thrombectomy Capable Stroke Center,The Joint Commission,95,39.5292,-104.872,
Colorado,Saint Joseph Hospital,Denver,80218,Primary Stroke Center,The Joint Commission,94,39.74603,-104.97109,
Colorado,Rose Medical Center,Denver,80220,Primary Stroke Center,The Joint Commission,93,39.73305,-104.93445,
Colorado,Presbyterian / St. Luke's Medical Center,Denver,80128,Primary Stroke Center,The Joint Commission,92,39.74658,-104.96672,
Colorado,Poudre Valley Hospital,Fort Collins,80524,Primary Stroke Center,The Joint Commission,91,40.57176,-105.05557,
Colorado,Platte Valley Medical Center,Brighton,80601,Primary Stroke Center,The Joint Commission,90,39.96438,-104.76896,
Colorado,Penrose St. Francis Health Services,Colorado Springs,80907,Primary Stroke Center,The Joint Commission,89,38.86559,-104.82181,
Colorado,Parkview Medical Center,Pueblo,81003,Primary Stroke Center,The Joint Commission,88,38.28184,-104.61257,
Colorado,Parker Adventist Hospital,Parker,80138,Primary Stroke Center,The Joint Commission,86,39.54891,-104.77116,
Colorado,North Suburban Medical Center,Thornton,80229,Primary Stroke Center,The Joint Commission,85,39.86312,-104.98486,
Colorado,North Colorado Medical Center,Greeley,80631,Primary Stroke Center,The Joint Commission,84,40.41481,-104.70891,
Colorado,Medical Center of the Rockies,Loveland,80538,Primary Stroke Center,The Joint Commission,83,40.41553,-104.99798,
Colorado,Medical Center of Aurora,Aurora,80012,Primary Stroke Center,The Joint Commission,82,39.6902,-104.83236,
Colorado,Lutheran Medical Center,Wheatridge,80122,Comprehensive Stroke Center,DNV GL,80,39.76783,-105.08892,
Colorado,Longmont United Hospital,Longmont,80501,Primary Stroke Center,The Joint Commission,79,40.18225,-105.12573,
Colorado,Littleton Adventist Hospital,Littleton,80122,Comprehensive Stroke Center,DNV GL,78,39.57628,-104.98581,
Colorado,Good Samaritan Medical Center,Lafayette,80026,Primary Stroke Center,The Joint Commission,77,39.97063,-105.08555,
Colorado,Centura Health Porter Adventist,Denver,80210,Primary Stroke Center,The Joint Commission,76,39.67005,-104.97489,
Colorado,Castle Rock Adventist Hospital,Castle Rock,80109,Primary Stroke Center,The Joint Commission,75,39.40568,-104.88528,
Colorado,Boulder Community Health Foothills,Boulder,80301,Primary Stroke Center,The Joint Commission,74,40.01607,-105.23634,
Colorado,Avista Adventist Hospital,Louisville,80027,Primary Stroke Center,The Joint Commission,73,39.95178,-105.15112,
Connecticut,Yale New Haven Hospital (York St. Campus),New Haven,6510,Comprehensive Stroke Center ,The Joint Commission,193,41.30429,-72.93515,
Connecticut,Yale New Haven Hospital (St. Rafael Campus),New Haven,6510,Primary Stroke Center,The Joint Commission,192,41.31029,-72.94355,
Connecticut,Windham Community Memorial Hospital,Willimantic,6226,Primary Stroke Center,The Joint Commission,191,41.713555,-72.212485,
Connecticut,Waterbury Hospital,Waterbury,6708,Primary Stroke Center,The Joint Commission,190,41.55965,-73.05846,
Connecticut,UCONN John Dempsey Hospital ,Farmington,6030,Primary Stroke Center,The Joint Commission,189,41.73094,-72.79001,
Connecticut,THOCC - New Britain General,New Britain,6050,Primary Stroke Center,The Joint Commission,188,41.66605,-72.776335,
Connecticut,THOCC - Bradley General,Southington,6489,Primary Stroke Center,The Joint Commission,187,41.59992,-72.883575,
Connecticut,The William W. Backus Hospital,Norwich,6360,Primary Stroke Center,The Joint Commission,186,41.5285037,-72.07566,
Connecticut,Stamford Hospital,Stamford,6904,Primary Stroke Center,The Joint Commission,185,41.05641,-73.540405,
Connecticut,St. Vincent's Medical Center,Bridgeport,6606,Primary Stroke Center,The Joint Commission,184,41.20054,-73.20287,
Connecticut,St. Mary's Hospital,Waterbury,6706,Primary Stroke Center,The Joint Commission,183,41.536995,-73.031355,
Connecticut,St. Francis Hospital & Medical Center,Hartford,6105,Primary Stroke Center,The Joint Commission,182,41.77495,-72.69782,
Connecticut,Sharon Hospital,Sharon,6069,Primary Stroke Center,HFAP,181,41.88021,-73.4818,
Connecticut,Rockville General Hospital,Vernon Rockville,6066,Primary Stroke Center,The Joint Commission,180,41.86683,-72.45073,
Connecticut,Norwalk Hospital,Norwalk,6856,Primary Stroke Center,The Joint Commission,179,41.11175,-73.42007,
Connecticut,MidState Medical Center,Meriden,6451,Primary Stroke Center,The Joint Commission,178,41.55015,-72.80358,
Connecticut,Middlesex Hospital ,Middletown,6457,Primary Stroke Center,The Joint Commission,177,41.558585,-72.65263,
Connecticut,Manchester Memorial Hospital,Manchester,6040,Primary Stroke Center,The Joint Commission,176,41.78185,-72.5259,
Connecticut,Lawrence Memorial Hospital,New London,6320,Primary Stroke Center,The Joint Commission,175,41.33626,-72.10292,
Connecticut,Johnson Memorial Hospital,Stafford Springs,6076,Acute Stroke Ready Hospital,The Joint Commission,172,41.97802,-72.39203,
Connecticut,Hartford Hospital,Hartford,6102,Comprehensive Stroke Center,The Joint Commission,169,41.75437,-72.67905,
Connecticut,Griffin Hospital ,Derby,6418,Acute Stroke Ready Hospital,The Joint Commission,167,41.33593,-73.08892,
Connecticut,Greenwich Hospital ,Greenwich,6830,Primary Stroke Center,The Joint Commission,166,41.03431,-73.6302,
Connecticut,Day Kimball Healthcare,Putnam,6260,Primary Stroke Center,The Joint Commission,164,41.90617,-71.91317,
Connecticut,Danbury Hospital,Danbury,6810,Primary Stroke Center,The Joint Commission,163,41.40691718,-73.44385012,
Connecticut,Bridgeport Hospital,Bridgeport,6610,Primary Stroke Center, The Joint Commission,162,41.19095,-73.16578,
Delaware,St. Francis Hospital,Wilmington,19805,Primary Stroke Center,The Joint Commission,199,39.745,-75.56885,
Delaware,Nanticoke Memorial Hospital,Seaford,19973,Primary Stroke Center,The Joint Commission,197,38.64179,-75.60478,
Delaware,Christiana Care Health Services,Newark,19713,Acute Stroke Ready Hospital             ,The Joint Commission,194,39.68813,-75.66979,
Delaware,Christiana Care Health Services,Newark,19713,Comprehensive Stroke Center,The Joint Commission,195,39.68813,-75.66979,
Delaware,Christiana Care Health Services,Newark,19713,Primary Stroke Center,The Joint Commission,198,39.68813,-75.66979,
Delaware,Beebe Medical Center,Lewes,19958,Primary Stroke Center,The Joint Commission,196,38.775785,-75.140675,
Delaware,Bayhealth Medical Center,Dover,19901,Primary Stroke Center,The Joint Commission,200,39.1601351,-75.5183205,
Delaware,Bayhealth Hospital Sussex Campus,Milford,19963,Primary Stroke Center,The Joint Commission,201,38.88654,-75.39116,
Florida,UF Health Jacksonville,Jacksonville,32209,Comprehensive Stroke Center,DNV GL,663,30.3478,-81.66435,
Florida,Tampa General Hospital,Tampa,33606,Comprehensive Stroke Center,HFAP,664,27.93753,-82.45929,
Florida,St. Joseph's Hospital South,Riverview,33578,Primary Stroke Center,DNV GL,211,27.78868,-82.34623,
Florida,St. Joseph's Hospital North,Lutz,33558,Primary Stroke Center,DNV GL,210,28.13014,-82.50896,
Florida,St. Joseph's Hospital,Tampa,33507,Comprehensive Stroke Center,DNV GL,662,27.98284,-82.49132,
Florida,South Florida Baptist Hospital,Plant City ,33563,Primary Stroke Center,DNV GL,209,28.01564,-82.139,
Florida,Sarasota Memorial Health Care System,Sarasota,34329,Comprehensive Stroke Center,DNV GL,661,27.31827,-82.53125,
Florida,Ocala Regional Medical Center,Ocala,34471,Comprehensive Stroke Center,DNV GL,660,29.1755,-82.13681,
Florida,Northside Hospital,St. Petersburg,33709,Comprehensive Stroke Center,DNV GL,659,27.81822504,-82.72528991,
Florida,North Florida Regional Medical Center,Gainesville,32605,Comprehensive Stroke Center,DNV GL,605,29.66046,-82.41225,
Florida,Lee Memorial Hospital,Fort Myers,33901,Primary Stroke Center,DNV GL,208,26.62821,-81.87369,
Florida,Gulf Coast Medical Center,Fort Myers,33912,Comprehensive Stroke Center,DNV GL,556,26.54415,-81.85003,
Florida,Gulf Breeze Hospital,Gulf Breeze ,32562,Primary Stroke Center,DNV GL,207,30.36631,-87.16885,
Florida,Cape Coral Hospital,Cape Coral,33990,Primary Stroke Center,DNV GL,206,26.63943,-81.94324,
Florida,Bayfront Health St. Petersburg,St. Petersburg,33701,Comprehensive Stroke Center,DNV GL,213,27.76318,-82.64182,
Florida,Baptist Hospital,Pensacola,32501,Primary Stroke Center,DNV GL,205,30.42956,-87.23205,
Florida,Ascension Sacred Heart Pensacola,Pensacola,32504,Comprehensive Stroke Center,DNV GL,212,30.47647,-87.21219,
Florida,AdventHealth Wesley Chapel,Wesley Chapel,33544,Primary Stroke Center,DNV GL,204,28.24049,-82.32764,
Florida,Advent Health Winter Park,Winter Park,32792,Primary Stroke Center,DNV GL,202,28.5979,-81.32679,
Florida,Advent Health Orlando,Orlando,32803,Primary Stroke Center,DNV GL,203,28.57325,-81.36974,
Georgia,Wellstar Spalding Regional Hospital,Griffin,30224,Primary Stroke Center,The Joint Commission,711,33.23894,-84.26728,
Georgia,WellStar Kennestone Regional Medical Center,Marietta,30060,Comprehensive Stroke Center,The Joint Commission,668,33.9521708,-84.540895,
Georgia,WellStar Cobb Hospital,Austell,30106,Primary Stroke Center,The Joint Commission,710,33.85613,-84.60207,
Georgia,WellStar Atlanta Medical Center,Atlanta,30312,Primary Stroke Center,The Joint Commission,709,33.7631,-84.37356,
Georgia,University Health Services,Augusta,30901,Primary Stroke Center,The Joint Commission,708,33.462605,-81.981405,
Georgia,"The Hospital Authority of Valdosta and Lowndes County, GA",Valdosta,31602,Primary Stroke Center,The Joint Commission,657,30.85842,-83.27829,
Georgia,Tanner Medical Center / Villa Rica,Villa Rica,30180,Primary Stroke Center,The Joint Commission,554,33.74501,-84.91579,
Georgia,Tanner Medical Center,Carrollton,30117,Primary Stroke Center,The Joint Commission,607,33.5697,-85.07412,
Georgia,St. Mary's Health Care System,Athens,30606,Primary Stroke Center,The Joint Commission,706,33.94666,-83.40512,
Georgia,St. Francis Health,Columbus,31904,Primary Stroke Center,The Joint Commission,705,32.50937899,-84.9570329,
Georgia,"Southern Regional, Prime Healthcare Foundation",Riverdale,30274,Primary Stroke Center,The Joint Commission,704,33.57884,-84.389,
Georgia,Saint Joseph's Hospital,Savannah,31419,Primary Stroke Center,The Joint Commission,703,31.98514,-81.15475,
Georgia,Redmond Park Hospital,Rome,30165,Primary Stroke Center,The Joint Commission,702,34.2666625,-85.2126435,
Georgia,Piedmont Rockdale Hospital,Conyers,30012,Acute Stroke Ready,DNV GL,687,33.6666367,-84.0211938,
Georgia,Piedmont Newnan Hospital,Newnan,30265,Primary Stroke Center,DNV GL,693,33.35896,-84.75437,
Georgia,Piedmont Hospital,Atlanta,30309,Primary Stroke Center,DNV GL,692,33.80885,-84.39554,
Georgia,Piedmont Henry Hospital,Stockbridge,30281,Primary Stroke Center,DNV GL,691,33.5115,-84.22703,
Georgia,Piedmont Fayette Hospital,Fayetteville,30214,Primary Stroke Center,DNV GL,690,33.45232,-84.50759,
Georgia,Piedmont Athens Regional Medical Center,Athens,30606,Primary Stroke Center,DNV GL,689,33.954697,-83.3964361,
Georgia,Phoebe Putney Memorial Hospital,Albany,31702,Primary Stroke Center,DNV GL,688,31.59022,-84.15755,
Georgia,Northside Hospital-Cherokee,Canton,30115,Primary Stroke Center,The Joint Commission,699,34.22975,-84.46589,
Georgia,Northside Hospital - Forsyth,Cumming,30041,Primary Stroke Center,The Joint Commission,698,34.17868,-84.14081,
Georgia,Northside Hospital,Atlanta,30342,Primary Stroke Center,The Joint Commission,700,33.9096,-84.35219,
Georgia,Northside Hospital,Lawrenceville,30046,Primary Stroke Center,The Joint Commission,701,33.955475,-83.99105,
Georgia,Northeast Georgia Medical Center ,Gainesville,30501,Primary Stroke Center,DNV GL,685,34.30346,-83.81759,
Georgia,North Fulton Medical Center,Roswell,30076,Primary Stroke Center,The Joint Commission,697,34.0367583,-84.3360572,
Georgia,Midtown Medical Center ,Columbus,31901,Primary Stroke Center,The Joint Commission,684,32.463855,-84.98902,
Georgia,Memorial Health University Medical Center ,Savannah,30404,Primary Stroke Center,DNV GL,683,33.47077,-81.99065,
Georgia,Medical Center – Navicent Health ,Macon,31201,Primary Stroke Center,DNV GL,682,32.83322,-83.63615,
Georgia,Meadows Regional Medical Center,Vidalia,30474,Acute Stroke Ready,DNV GL,686,32.20889,-82.37792,
Georgia,Higgins General Hospital,Bremen,30110,Acute Stroke Ready Hospital,The Joint Commission,696,33.71668,-85.14517,
Georgia,Hamilton Medical Center ,Dalton,30722,Primary Stroke Center,The Joint Commission,681,34.78963,-84.98397,
Georgia,Hamilton Health Care System,Dalton,30720,Primary Stroke Center,The Joint Commission,695,34.78963,-84.98397,
Georgia,Habersham Medical Center ,Demorest,30535,Primary Stroke Center,DNV GL,680,34.58173,-83.53718,
Georgia,Grady Memorial Hospital,Atlanta,30303,Comprehensive Stroke Center,The Joint Commission,667,33.75232,-84.38242,
Georgia,Floyd Medical Center ,Rome,30165,Primary Stroke Center,The Joint Commission,679,34.25934,-85.17871,
Georgia,"Fairview Park Hospital, LP",Dublin,31021,Primary Stroke Center,The Joint Commission,694,32.53077,-82.95058,
Georgia,Emory University Hospital Midtown ,Atlanta,30308,Primary Stroke Center,The Joint Commission,678,33.7696,-84.38546,
Georgia,Emory University Hospital,Atlanta,30322,Comprehensive Stroke Center,The Joint Commission,666,33.79232,-84.32186,
Georgia,Emory St. Joseph’s Hospital of Atlanta ,Atlanta,30342,Primary Stroke Center,The Joint Commission,677,33.90842,-84.34973,
Georgia,Emory Johns Creek Hospital ,Johns Creek,30097,Primary Stroke Center,The Joint Commission,676,34.067,-84.17615,
Georgia,Emory Decatur Hospital ,Decatur,30033,Primary Stroke Center,The Joint Commission,675,33.79038,-84.28236,
Georgia,Eastside Medical Center ,Snellville,30078,Primary Stroke Center,The Joint Commission,674,33.87691,-84.02095,
Georgia,Doctors Hospital of Augusta ,Augusta,30909,Primary Stroke Center,The Joint Commission,673,33.48306,-82.09179,
Georgia,Coliseum Northside Hospital ,Macon ,31210,Primary Stroke Center,The Joint Commission,672,32.87087,-83.69443,
Georgia,Coliseum Medical Centers ,Macon,31217,Primary Stroke Center,The Joint Commission,671,32.84704,-83.61823,
Georgia,Cartersville Medical Center ,Cartersville,30120,Primary Stroke Center,The Joint Commission,670,34.20048,-84.79554,
Georgia,Augusta University Medical Center,Augusta,30912,Comprehensive Stroke Center,The Joint Commission,665,33.47077,-81.99065,
Georgia, Candler Hospital - Savannah ,Savannah,31405,Primary Stroke Center,The Joint Commission,669,32.048575,-81.10967,
Hawaii,Wilcox Memorial Hospital,Lihue,96766,Primary Stroke Center,The Joint Commission,714,21.97559,-159.36773,
Hawaii,The Queen's Medical Center,Honolulu,96813,Comprehensive Stroke Center,The Joint Commission,712,21.30781,-157.85394,
Hawaii,Straub Clinic and Hospital,Honolulu,96813,Primary Stroke Center,The Joint Commission,716,21.30645,-157.8562,
Hawaii,Pali Momi Medical Center,Aiea,96701,Primary Stroke Center,The Joint Commission,718,21.38351,-157.93848,
Hawaii,Maui Memorial Medical Center,Wailuku,96793,Primary Stroke Center,The Joint Commission,719,20.88486,-156.48941,
Hawaii,Kaiser Foundation Hospital,Honolulu,96819,Primary Stroke Center,The Joint Commission,713,21.3310633,-157.8823263, 
Hawaii,Hilo Medical Center,Hilo,96720,Primary Stroke Center,The Joint Commission,715,19.71836,-155.11311,
Hawaii,Adventist Health Castle,Kailua,96734,Primary Stroke Center,The Joint Commission,717,21.38039,-157.75773,
Idaho,St. Luke's Regional Medical Center,Boise,83712,Primary Stroke Center,The Joint Commission,720,43.609085,-116.180885,
Idaho,"St. Luke's Magic Valley Regional Medical Center, Ltd.",Twin Falls,83301,Primary Stroke Center,The Joint Commission,722,42.56311,-114.47561,
Idaho,Eastern Idaho Regional Medical Center,Idaho Falls,83404,Primary Stroke Center,The Joint Commission,721,43.46986,-111.99208,
Illinois,West Suburban Medical Center,Oak Park,60302,Primary Stroke Center,The Joint Commission,582,41.89153,-87.77628,
Illinois,Weiss Memorial Hospital,Chicago,60640,Primary Stroke Center,The Joint Commission,581,41.96698,-87.64941,
Illinois,Washington County Hospital,Nashville,62263,Acute Stroke Ready Hospital,State,580,38.33925,-89.39083,
Illinois,Warner Hospital and Health Services (Dr. John Warner Hospital),Clinton,61727,Acute Stroke Ready Hospital,State,579,40.14872,-88.9651,
Illinois,Wabash General Hospital District,Mt. Carmel,62863,Acute Stroke Ready Hospital,State,578,38.42098,-87.76913,
Illinois,Vista Health System,Waukegan,60085,Primary Stroke Center,The Joint Commission,577,42.37838,-87.83232,
Illinois,University of Illinois Hospital Health Sciences System- Chicago,Chicago,60612,Comprehensive Stroke Center,The Joint Commission,576,41.879875,-87.685595,
Illinois,University of Chicago Hospitals and Health Systems,Chicago,60637,Comprehensive Stroke Center,The Joint Commission,575,41.77693,-87.609505,
Illinois,Unity Point Health Proctor Hospital,Peoria,61614,Acute Stroke Ready Hospital,State,574,40.75288,-89.59386,
Illinois,Unity Point Health Pekin,Pekin,61554,Acute Stroke Ready Hospital,State,573,40.56346,-89.63285,
Illinois,Unity Point Health Methodist,Peoria,61625,Primary Stroke Center,The Joint Commission,572,40.70058,-89.59494,
Illinois,Trinity Medical Center (West) - DBA Trinity Rock Island,Rock Island,61201,Primary Stroke Center,The Joint Commission,571,41.497435,-90.585955,
Illinois,Thomas H. Boyd Memorial Hospital,Carrollton,62016,Acute Stroke Ready Hospital,State,570,39.29621,-90.41273,
Illinois,Taylorville Memorial Hospital,Taylorville,62568,Acute Stroke Ready Hospital,State,569,39.55505,-89.29374,
Illinois,Swedish Covenant Hospital,Chicago,60625,Primary Stroke Center,HFAP,568,41.97501,-87.69921,
Illinois,Swedish American A Division of UW health,Rockford,61104,Primary Stroke Center,The Joint Commission,567,42.26001,-89.083765,
Illinois,St. Margaret's Hospital,Spring Valley,61362,Acute Stroke Ready Hospital,State,566,41.32764,-89.199695,
Illinois,St. Joseph Memorial Hospital,Murphysboro,62966,Acute Stroke Ready Hospital,State,565,37.77365,-89.32503,
Illinois,SSM Health St. Mary's Hospital,Centralia,62801,Acute Stroke Ready Hospital,State,564,38.53097,-89.11776,
Illinois,SSM Health Good Samaritan,Mt. Vernon,62864,Primary Stroke Center,The Joint Commission,563,38.29784,-88.94125,
Illinois,Sparta Community Hospital,Sparta,62286,Acute Stroke Ready Hospital,State,562,38.12427,-89.69176,
Illinois,Silver Cross Hospital and Medical Centers,New Lenox,60435,Primary Stroke Center,The Joint Commission,561,41.531235,-88.09469,
Illinois,Sarah D. Culbertson Memorial Hospital,Rushville,62681,Acute Stroke Ready Hospital,State,560,40.11788,-90.56412,
Illinois,Sarah Bush Lincoln Health Center,Mattoon,61938,Acute Stroke Ready Hospital,State,559,39.48794,-88.2738,
Illinois,Salem Township Hospital,Salem,62881,Acute Stroke Ready Hospital,State,558,38.64157,-88.94756,
Illinois,Rush University Medical Center,Chicago,60612,Comprehensive Stroke Center,The Joint Commission,557,41.87449,-87.66819,
Illinois,Rush Oak Park Hospital,Oak Park,60304,Primary Stroke Center,The Joint Commission,584,41.87866,-87.80361,
Illinois,Rochelle Community Hospital,Rochelle,61068,Acute Stroke Ready Hospital,State,552,41.92871,-89.06343,
Illinois,Riverside Medical Center,Kankakee,60901,Primary Stroke Center,DNV GL,501,41.1256,-87.883,
Illinois,Red Bud Regional Hospital,Red Bud,62278,Acute Stroke Ready Hospital,State,551,38.20925,-89.9973,
Illinois,Protestant Memorial Medical Center,Belleville,62226,Acute Stroke Ready Hospital,State,550,38.541535,-90.0178,
Illinois,Presence St. Mary's Hospital,Kankakee,60901,Primary Stroke Center,The Joint Commission,549,41.11674,-87.85528,
Illinois,Presence Saints Mary and Elizabeth Medical Center,Chicago,60622,Primary Stroke Center,The Joint Commission,548,41.90303,-87.68339,
Illinois,Presence Saint Joseph Medical Center,Joliet,60435,Comprehensive Stroke Center,DNV GL,547,41.531235,-88.09469,
Illinois,Presence Saint Joseph Hospital - Chicago,Chicago,60657,Primary Stroke Center,The Joint Commission,546,41.93391,-87.63686,
Illinois,Presence Saint Joseph Hospital,Elgin,60123,Primary Stroke Center,The Joint Commission,545,42.034805,-88.293935,
Illinois,Presence Saint Francis Hospital,Evanston,60202,Primary Stroke Center,The Joint Commission,544,42.02561,-87.685945,
Illinois,Presence Mercy Medical Center,Aurora,60506,Primary Stroke Center,The Joint Commission,542,41.760805,-88.322445,
Illinois,Pipeline-Westlake Hospital,Melrose Park,60160,Primary Stroke Center,The Joint Commission,583,41.90325,-87.85336,
Illinois,Pinckneyville Community Hospital,Pinckneyville,62274,Acute Stroke Ready Hospital,State,541,38.08451,-89.34909,
Illinois,Perry Memorial Hospital,Princeton,61356,Acute Stroke Ready Hospital,State,540,41.36706,-89.45579,
Illinois,Passavant Area Hospital,Jacksonville,62650,Acute Stroke Ready Hospital,State,539,39.74655,-90.25972,
Illinois,Pana Community Hospital,Pana,62557,Acute Stroke Ready Hospital,State,538,39.37935,-89.08436,
Illinois,Palos Hospital,Palos Heights,60463,Acute Stroke Ready Hospital,State,537,41.66995,-87.81289,
Illinois,OSF Little Company of Mary Hospital,Evergreen Park,60805,Primary Stroke Center,The Joint Commission,447,41.72134,-87.69095,
Illinois,OSF Healthcare St. Paul Medical Center -Mendota,Mendaota,61341,Acute Stroke Ready Hospital,State,536,41.33027,-88.701735,
Illinois,OSF Healthcare St. Mary Medical Center,Galesburg,61401,Acute Stroke Ready Hospital,State,535,40.98729,-90.35961,
Illinois,OSF Healthcare St. Joseph Medical Center,Bloomington,61701,Primary Stroke Center,The Joint Commission,534,40.48221,-88.95528,
Illinois,OSF Healthcare Saint Luke Medical Center,Kewanee,61443,Acute Stroke Ready Hospital,State,533,41.22203,-89.94834,
Illinois,OSF Healthcare Saint James John w. Albrecht Medical Center,Pontiac,61764,Acute Stroke Ready Hospital,State,532,40.86961,-88.67876,
Illinois,OSF Healthcare Saint Francis Medical Center,Peoria,61637,Comprehensive Stroke Center,The Joint Commission,531,40.7025,-89.58959,
Illinois,OSF Healthcare Saint Elizabeth Medical Center,Ottawa,61350,Acute Stroke Ready Hospital,State,530,41.35725,-88.82449,
Illinois,OSF Healthcare Saint Anthony's Health Center,Alton,62002,Primary Stroke Center,The Joint Commission,529,38.90787,-90.17379,
Illinois,OSF Healthcare Saint Anthony Medical Center,Rockford,61108,Comprehensive Stroke Center,DNV GL,528,42.26721,-89.00775,
Illinois,OSF Healthcare Sacred Heart Medical Center-Danville,Danville,61832,Primary Stroke Center,The Joint Commission,527,40.13687,-87.64555,
Illinois,OSF Healthcare Holy Family Medical Center,Monmouth,61462,Acute Stroke Ready Hospital,State,526,40.92219,-90.65883,
Illinois,OSF Healthcare Heart of Mary Medical Center - Urbana,Urbana,61801,Primary Stroke Center,The Joint Commission,525,40.11758,-88.22694,
Illinois,Norwegian-American Hospital,Chicago,60622,Primary Stroke Center,HFAP,524,41.90106,-87.69932,
Illinois,Northwestern Memorial Hospital,Chicago,60611,Comprehensive Stroke Center,The Joint Commission,523,41.89495,-87.62223,
Illinois,Northwestern Medicine-Valley West Hospital,Sandwich,60548,Acute Stroke Ready Hospital,State,522,41.65718,-88.62073,
Illinois,Northwestern Medicine-Lake Forest Hospital,Lake Forest,60045,Primary Stroke Center,The Joint Commission,520,42.25719,-87.86647,
Illinois,Northwestern Medicine-Kishwaukee Hospital,DeKalb,60115,Primary Stroke Center,The Joint Commission,519,41.96107,-88.72258,
Illinois,Northwestern Medicine-Delnor Community Hospital,Geneva,60134,Primary Stroke Center,The Joint Commission,518,41.887515,-88.3108,
Illinois,Northwestern Medicine-Central DuPage Hospital,Winfield,60190,Comprehensive Stroke Center,The Joint Commission,517,41.8732,-88.15727,
Illinois,Northwestern Medicine McHenry Hospital,McHenry,60050,Primary Stroke Center,The Joint Commission,521,42.31801,-88.28048,
Illinois,Northwest Community Hospital,Arlington Heights,60005,Comprehensive Stroke Center,The Joint Commission,516,42.06733,-87.99133,
Illinois,NorthShore University HealthSystem-Highland Park Hospital,Highland Park,60035,Primary Stroke Center,The Joint Commission,515,42.186275,-87.801605,
Illinois,NorthShore University HealthSystem-Glenbrook Hospital,Glenview,60026,Primary Stroke Center,The Joint Commission,514,42.092069,-87.8411229,
Illinois,NorthShore University HealthSystem-Evanston Hospital,Evanston,60201,Primary Stroke Center,The Joint Commission,513,42.06544,-87.68401,
Illinois,Mount Sinai Hospital Medical Center,Chicago,60608,Primary Stroke Center,The Joint Commission,512,41.85904,-87.66014,
Illinois,Morris Hospital and Healthcare Centers,Morris,60450,Primary Stroke Center,HFAP,511,41.36952,-88.42616,
Illinois,Midwest Medical Center,Galena,61036,Acute Stroke Ready Hospital,State,510,42.44909,-90.45729,
Illinois,Mercy Hospital & Medical Center,Chicago,60616,Primary Stroke Center,HFAP,509,41.84659,-87.62273,
Illinois,Mercy Harvard Hospital,Harvard,60033,Acute Stroke Ready Hospital,The Joint Commission,508,42.42141,-88.614335,
Illinois,Memorial Medical Center,Springfield,62781,Comprehensive Stroke Center,The Joint Commission,507,39.80873,-89.65471,
Illinois,Memorial Hospital-Carthage,Carthage,62321,Acute Stroke Ready Hospital,State,506,40.41366,-91.133645,
Illinois,Memorial Hospital of Chester,Chester,62233,Acute Stroke Ready Hospital,State,505,37.91938,-89.81139,
Illinois,Memorial Hospital of Carbondale,Carbondale,62901,Primary Stroke Center,The Joint Commission,504,37.72766,-89.22006,
Illinois,Memorial Hospital East,Shiloh,62269,Acute Stroke Ready Hospital,State,503,38.57337,-89.90503,
Illinois,McDonough District Hospital,Macomb,61455,Acute Stroke Ready Hospital,State,502,40.44698,-90.66462,
Illinois,Massac Memorial Hospital,Metropolis,62960,Acute Stroke Ready Hospital,State,451,37.16646,-88.73968,
Illinois,Mason District Hospital,Havana,62644,Acute Stroke Ready Hospital,State,450,40.30531,-90.05511,
Illinois,Marshall Browning Hospital,Du Quoin,62832,Acute Stroke Ready Hospital,State,449,38.02501,-89.23651,
Illinois,Loyola University Medical Center,Maywood,60153,Comprehensive Stroke Center,The Joint Commission,448,41.85952,-87.8341,
Illinois,Lawrence County Memorial Hospital,Lawrenceville,62439,Acute Stroke Ready Hospital,State,445,38.72995,-87.69551,
Illinois,Kirby Medical Center,Monticello,61856,Acute Stroke Ready Hospital,State,444,40.06053,-88.55969,
Illinois,Katherine Shaw Bethea Hospital,Dixon,61021,Acute Stroke Ready Hospital,State,443,41.83845,-89.48042,
Illinois,"John H. Stroger, Jr. Hospital of Cook County",Chicago,60612,Primary Stroke Center,The Joint Commission,442,41.87294,-87.67364,
Illinois,Jersey Community Hospital,Jerseyville,62052,Acute Stroke Ready Hospital,State,441,39.1104,-90.34311,
Illinois,Javon Bea Hospital-Rockton Ave,Rockford,61103,Primary Stroke Center,DNV GL,440,42.29888,-89.09752,
Illinois,Javon Bea Hospital-Riverside Campus,Rockford,61111,Comprehensive Stroke Center,DNV GL,439,42.30400141,-89.04906366,
Illinois,Iroquois Memorial Hospital,Watseka,60970,Acute Stroke Ready Hospital,State,438,40.7665,-87.73115,
Illinois,Ingalls Memorial Hospital,Harvey,60426,Primary Stroke Center,DNV GL,437,41.6208,-87.645935,
Illinois,Illinois Valley Community Hosptial,Peru,61354,Acute Stroke Ready Hospital,State,436,41.32883,-89.12521,
Illinois,Illini Community Hospital,Pittsfield,62363,Acute Stroke Ready Hospital,State,435,39.60722,-90.81519,
Illinois,HSHS St. Mary's Hospital,Decatur,62521,Primary Stroke Center,The Joint Commission,434,39.82755,-88.93188,
Illinois,HSHS St. Joseph's Hospital,Breese,62230,Acute Stroke Ready Hospital,State,432,38.62599,-89.52409,
Illinois,HSHS St. Joseph's Hospital,Highland,62249,Acute Stroke Ready Hospital,State,433,38.75524,-89.66799,
Illinois,HSHS St. John's Hospital,Springfield,62769,Primary Stroke Center,The Joint Commission,431,39.80659,-89.64396,
Illinois,HSHS St. Francis Hospital,Litchfield,62056,Acute Stroke Ready Hospital,State,430,39.18084,-89.63899,
Illinois,HSHS St. Elizabeth's Hospital,Ofallon,62269,Acute Stroke Ready Hospital,State,429,38.58352,-89.93217,
Illinois,HSHS St. Anthony's Memorial Hospital,Effingham,62401,Acute Stroke Ready Hospital,State,428,39.12577,-88.54974,
Illinois,HSHS Holy Family Hospital,Greenville,62246,Acute Stroke Ready Hospital,State,427,38.90278,-89.40772,
Illinois,HSHS Good Shepherd Hospital,Shelbyville,62565,Acute Stroke Ready Hospital,State,426,39.40581,-88.80829,
Illinois,Horizon Health,Paris,61944,Acute Stroke Ready Hospital,State,425,39.60718,-87.67795,
Illinois,Hopedale Hospital,Hopedale,61747,Acute Stroke Ready Hospital,State,424,40.42087,-89.41406,
Illinois,Holy Cross Hospital,Chicago,60629,Primary Stroke Center,HFAP,423,41.76908,-87.69111,
Illinois,Hillsboro Area Hospital,Hillsboro,62049,Acute Stroke Ready Hospital,State,422,39.15172,-89.48067,
Illinois,Herrin Hospital,Herrin,62948,Primary Stroke Center,The Joint Commission,421,37.805235,-89.02812,
Illinois,Heartland Regional Medical Center,Marion,62959,Acute Stroke Ready Hospital,State,420,37.74311,-88.99167,
Illinois,Harrisburg Medical Center,Harrisburg,62946,Acute Stroke Ready Hospital,State,419,37.73096,-88.5234,
Illinois,Hammond-Henry Hospital,Geneseo,61254,Acute Stroke Ready Hospital,State,418,41.46014,-90.15762,
Illinois,Hamilton Memorial Hospital,McLeansboro,62859,Acute Stroke Ready Hospital,State,417,38.08717,-88.54024,
Illinois,Graham Health System,Canton,61520,Acute Stroke Ready Hospital,State,416,40.55269,-90.03916,
Illinois,Gottlieb Memorial Hospital,Melrose Park,60160,Acute Stroke Ready Hospital,State,415,41.9086,-87.8427,
Illinois,Gottlieb Community Health Services Corporation - MacNeal Hospital,Berwyn,60402,Comprehensive Stroke Center,The Joint Commission,414,41.830485,-87.791175,
Illinois,Gibson Community Hospital,Gibson City,60936,Acute Stroke Ready Hospital,State,413,40.46304,-88.37378,
Illinois,Genesis Medical Center Silvis,Silvis,61282,Acute Stroke Ready Hospital,State,412,41.49378,-90.41868,
Illinois,Genesis Medical Center Aledo,Aledo,61231,Acute Stroke Ready Hospital,State,411,41.20533,-90.75867,
Illinois,Galesburg Cottage Hospital,Galesburg,61401,Primary Stroke Center,The Joint Commission,410,40.95562,-90.36533,
Illinois,Franklin Hospital,Benton,62791,Acute Stroke Ready Hospital,State,409,38.00982,-88.91819,
Illinois,Franciscan Health Olympia Fields,Olympia Fields,60461,Acute Stroke Ready Hospital,State,408,41.5224,-87.71078,
Illinois,FHN Memorial Hospital,Freeport,61032,Acute Stroke Ready Hospital,State,407,42.29505,-89.63776,
Illinois,Ferrell Hospital Community Foundation,Eldorado,62930,Acute Stroke Ready Hospital,State,406,37.81648,-88.440445,
Illinois,Fayette County Hospital,Vandalia,62471,Acute Stroke Ready Hospital,State,405,38.96985,-89.09932,
Illinois,Fairfield Memorial Hospital,Fairfield,62837,Acute Stroke Ready Hospital,State,404,38.38134,-88.37447,
Illinois,Elmhurst Memorial Hospital,Elmhurst,60126,Primary Stroke Center,The Joint Commission,403,41.901395,-87.93994,
Illinois,Edward Hospital,Naperville,60540,Comprehensive Stroke Center,DNV GL,402,41.76639967,-88.1249078,
Illinois,Decatur Memorial Hospital,Decatur,62526,Primary Stroke Center,The Joint Commission,401,39.86751,-88.96231,
Illinois,Crawford Memorial Hospital,Robinson,62454,Acute Stroke Ready Hospital,State,754,39.01419,-87.75052,
Illinois,Copley Memorial Hospital (Rush-Copley),Aurora,60504,Primary Stroke Center,The Joint Commission,753,41.760355,-88.223225,
Illinois,Community Hospital of Staunton,Staunton,62088,Acute Stroke Ready Hospital,State,752,39.01544,-89.78941,
Illinois,Community First Medical Center,Chicago,60634,Primary Stroke Center,The Joint Commission,751,41.94559,-87.769,
Illinois,Clay County Hospital,Flora,62839,Acute Stroke Ready Hospital,State,750,38.68091,-88.47222,
Illinois,CGH Medical Center,Sterling,61081,Acute Stroke Ready Hospital,State,749,41.80198,-89.69689,
Illinois,Carlinville Area Hospital Association,Carlinville,62626,Acute Stroke Ready Hospital,State,748,39.29939,-89.88279,
Illinois,Carle Richland Memorial Hospital,Olney,62450,Acute Stroke Ready Hospital,State,747,38.73656,-88.07745,
Illinois,Carle Hoopeston Regional Health Center,Hoopeston,60942,Acute Stroke Ready Hospital,State,746,40.45899,-87.66014,
Illinois,Carle Foundation Hospital,Urbana,61801,Comprehensive Stroke Center,DNV GL,745,40.11695,-88.21506,
Illinois,Blessing Hospital,Quincy,62305,Primary Stroke Center,DNV GL,744,39.93664,-91.39832,
Illinois,Anna Hospital Corporation DBA Union County Hospital,Anna,62906,Acute Stroke Ready Hospital,State,743,37.4622232,-89.2482673,
Illinois,Anderson Hospital,Maryville,62062,Acute Stroke Ready Hospital,State,742,38.73669,-89.94666,
Illinois,AMITA Health St. Alexius Medical Center,Hoffman Estates,60010,Primary Stroke Center,The Joint Commission,741,42.05281,-88.14193,
Illinois,AMITA Health Resurrection Medical Center,Chicago,60631,Comprehensive Stroke Center,DNV GL,543,41.98793,-87.81315,
Illinois,AMITA Health Alexian Brothers Medical Center,Elk Grove Village,60007,Comprehensive Stroke Center,The Joint Commission,740,42.0044,-88.01475,
Illinois,AMITA Health Adventist Medical Center Glen Oaks,Glendale Heights,60139,Primary Stroke Center,The Joint Commission,739,41.91465,-88.05719,
Illinois,AMITA Health Adventist Medical Center Bolingbrook,Bolingbrook,60440,Primary Stroke Center,The Joint Commission,738,41.70112,-88.08973,
Illinois,AMITA Health Adventist La Grange Medical Center,LaGrange,60525,Primary Stroke Center,The Joint Commission,737,41.79688,-87.88608,
Illinois,AMITA Health Adventist Hinsdale Medical Center,Hinsdale,60521,Primary Stroke Center,The Joint Commission,736,41.80554,-87.92135,
Illinois,Alton Memorial Hospital,Alton,62002,Primary Stroke Center,The Joint Commission,735,38.89909,-90.15895,
Illinois,Advocate Trinity Hospital,Chicago,60617,Primary Stroke Center,DNV GL,734,41.74246,-87.58007,
Illinois,Advocate South Suburban Hospital,Hazel Crest,60429,Primary Stroke Center,DNV GL,733,41.56719,-87.69568,
Illinois,Advocate Sherman Hospital,Elgin,60123,Primary Stroke Center,DNV GL,732,42.034805,-88.293935,
Illinois,Advocate Lutheran General Hospital,Park Ridge,60068,Comprehensive Stroke Center,DNV GL,731,42.03934,-87.84874,
Illinois,Advocate Illinois Masonic Medical Center Campus,Chicago,60657,Comprehensive Stroke Center,DNV GL,730,41.93679,-87.65091,
Illinois,Advocate Good Shepherd Hospital,Barrington,60010,Primary Stroke Center,DNV GL,729,42.158975,-88.134105,
Illinois,Advocate Good Samaritan Hospital,Downer's Grove,60515,Primary Stroke Center,DNV GL,728,41.81855,-88.00842,
Illinois,Advocate Eureka Hospital,Eureka,61530,Acute Stroke Ready Hospital,State,727,40.7209,-89.27163,
Illinois,Advocate Christ Hospital and Medical Center,Oak Lawn,60453,Comprehensive Stroke Center,DNV GL,726,41.70011,-87.7385,
Illinois,Advocate Bromenn Medical Center,Normal,61761,Primary Stroke Center,DNV GL,725,40.49739,-88.99096,
Illinois,Advocate Aurora Condell Medical Center,Libertyville,60048,Primary Stroke Center,DNV GL,724,42.27458,-87.95178,
Illinois,Abraham Lincoln Memorial Hospital,Lincoln,62656,Acute Stroke Ready Hospital,State,723,40.1534,-89.38951,
Indiana,Union Hospital,Terre Haute,47804,Primary Stroke Center,HFAP,482,39.48535,-87.40774,
Indiana,Terre Haute Regional Hospital,Terre Haute,47802,Primary Stroke Center,The Joint Commission,463,39.41942,-87.40795,
Indiana,St. Vincent Hospital and Health Care Services,Indianapolis,46260,Comprehensive Stroke Center,The Joint Commission,462,39.915775,-86.18747,
Indiana,St. Vincent Evansville,Evansville,47750,Primary Stroke Center,The Joint Commission,460,37.96537,-87.50412,
Indiana,St. Vincent Anderson Regional Hospital,Anderson,46016,Primary Stroke Center,The Joint Commission,461,40.10458,-85.683095,
Indiana,St. Mary Medical Center,Hobart,46342,Primary Stroke Center,The Joint Commission,459,41.51266,-87.26125,
Indiana,St. Joseph Hospital & Health Center,Kokomo,46904,Primary Stroke Center,The Joint Commission,458,40.453425,-86.13649,
Indiana,St. Joseph Health Systems,Fort Wayne,46802,Primary Stroke Center,The Joint Commission,457,41.072225,-85.1498,
Indiana,St. Catherine Hospital,East Chicago,46312,Primary Stroke Center,The Joint Commission,456,41.63448,-87.44793,
Indiana,Saint Joseph Regional Medical Center - South Bend,Mishawaka,46545,Primary Stroke Center,The Joint Commission,455,41.672725,-86.17797,
Indiana,Saint Joseph Regional Medical Center - Plymouth,Plymouth,46563,Acute Stroke Ready Hospital,The Joint Commission,454,41.34412,-86.3096106,
Indiana,Roudebush VA Medical Center,Indianapolis,46202,Primary Stroke Center,The Joint Commission,464,39.775055,-86.143315,
Indiana,Reid Health,Richmond,47374,Primary Stroke Center,HFAP,481,39.86298,-84.88601,
Indiana,Porter Regional Hospital,Valparaiso,46383,Primary Stroke Center,The Joint Commission,453,41.5501,-87.04965,
Indiana,Parkview Regional Medical Center,Fort Wayne,46845,Comprehensive Stroke Center,DNV GL,480,41.18706,-85.10034,
Indiana,Parkview Hospital,Fort Wayne,46845,Primary Stroke Center,The Joint Commission,452,41.1977644,-85.1241145,
Indiana,Methodist Hospital - Southlake,Merrillville,46410,Primary Stroke Center,HFAP,479,41.45851,-87.33219,
Indiana,Methodist Hospital - Northlake,Gary,46402,Primary Stroke Center,HFAP,478,41.5992,-87.35764,
Indiana,Memorial Hospital of South Bend,South Bend,46601,Thrombectomy Capable Stroke Center,The Joint Commission,604,41.67501,-86.255745,
Indiana,Margaret Mary Community Hospital,Batesville,47006,Acute Stroke Ready Hospital,The Joint Commission,603,39.297285,-85.223405,
Indiana,Lutheran Hospital,Fort Wayne,46804,Comprehensive Stroke Center,DNV GL,477,41.06441,-85.21706,
Indiana,La Porte Hospital,La Porte,46350,Primary Stroke Center,The Joint Commission,602,41.6101,-86.72522,
Indiana,Kosciusko Community Hospital,Warsaw,46580,Primary Stroke Center,The Joint Commission,601,41.24786,-85.82927,
Indiana,Johnson Memorial Health,Franklin,46131,Stroke Ready Hospital,HFAP,476,39.48021,-86.07809,
Indiana,Jackson County Schneck Memorial Hospital,Seymour,47274,Acute Stroke Ready Hospital,The Joint Commission,600,38.95742,-85.888235,
Indiana,IU Health - Arnett Hospital,Lafayette,47905,Primary Stroke Center,HFAP,475,40.40122,-86.80653,
Indiana,Indiana University Health West Hospital,Avon,46123,Primary Stroke Center,The Joint Commission,598,39.76891,-86.3479008,
Indiana,Indiana University Health North Hospital,Carmel,46032,Primary Stroke Center,The Joint Commission,597,39.975605,-86.12707,
Indiana,Indiana University Health Methodist Hospital,Indianapolis,46202,Comprehensive Stroke Center,The Joint Commission,599,39.775055,-86.143315,
Indiana,Indiana University Health Bloomington,Bloomington,47403,Primary Stroke Center,The Joint Commission,596,39.16025,-86.54012,
Indiana,Indiana University Health Ball Memorial Hospital,Muncie,47303,Primary Stroke Center,The Joint Commission,595,40.1969,-85.41489,
Indiana,Hendricks Regional Health - Danville Hospital,Danville,46122,Primary Stroke Center,HFAP,474,39.76052,-86.50243,
Indiana,Health and Hospital Corporation of Marion County,Indianapolis,46202,Primary Stroke Center,The Joint Commission,594,39.775055,-86.143315,
Indiana,Good Samaritan Hospital,Vincennes,47591,Primary Stroke Center,The Joint Commission,593,38.67375,-87.53223,
Indiana,Franciscan Health - Mooresville,Mooresville,46158,Stroke Ready Hospital,HFAP,473,39.60823,-86.35666,
Indiana,Franciscan Health - Michigan City,Michigan City,46360,Primary Stroke Center,HFAP,472,41.65946,-86.898,
Indiana,Franciscan Health - Lafayette East,Lafayette,47905,Primary Stroke Center,HFAP,471,40.39405,-86.83558,
Indiana,Franciscan Health - Indianapolis,Indianapolis,46237,Primary Stroke Center,HFAP,470,39.64845,-86.07827,
Indiana,Franciscan Health - Dyer,Dyer,46311,Primary Stroke Center,HFAP,469,41.49221,-87.52431,
Indiana,Franciscan Health - Crown Point,Crown Point,46307,Primary Stroke Center,HFAP,468,41.3953,-87.36643,
Indiana,Elkhart General Hospital,Elkhart,46514,Primary Stroke Center,The Joint Commission,592,41.67901,-85.99327,
Indiana,Dukes Memorial Hospital,Peru,46970,Primary Stroke Center,The Joint Commission,591,40.75684,-86.08247,
Indiana,Deaconess - Midtown Hospital,Evansville,47747,Primary Stroke Center,HFAP,467,37.98359,-87.57029,
Indiana,Deaconess - Gateway,Newburgh,47630,Primary Stroke Center,HFAP,466,37.949615,-87.40724,
Indiana,Community Howard Regional Health,Kokomo,46902,Primary Stroke Center,The Joint Commission,590,40.44719,-86.12414,
Indiana,Community Hospital South,Indianapolis,46227,Primary Stroke Center,The Joint Commission,589,39.63656,-86.13254,
Indiana,Community Hospital of Anderson and Madison County,Anderson,46011,Primary Stroke Center,The Joint Commission,588,40.1338,-85.69367,
Indiana,Community Hospital North,Indianapolis,46256,Primary Stroke Center,The Joint Commission,587,39.90043,-86.04329,
Indiana,Community Hospital Munster,Munster,46321,Comprehensive Stroke Center,The Joint Commission,446,41.5641582,-87.5157732,
Indiana,Community Hospital East,Indianapolis,46219,Primary Stroke Center,The Joint Commission,586,39.78778,-86.07658,
Indiana,Bluffton Health Systems,Bluffton,46714,Primary Stroke Center,The Joint Commission,585,40.735855,-85.174075,
Indiana,Baptist Health Floyd,New Albany,47150,Primary Stroke Center,HFAP,465,38.30009,-85.83423,
Iowa,UnityPoint Health - Des Moines,des Moines,50309,Primary Stroke Center,DNV GL,486,41.585475,-93.624455,
Iowa,Trinity Regional Medical Center,Fort Dodge ,50501,Primary Stroke Center,DNV GL,485,42.49179,-94.1916,
Iowa,St. Luke's Regional Medical Center,Sioux City,51004,Primary Stroke Center,DNV GL,484,42.51906,-96.40585,
Iowa,Mary Greeley Medical Center,Ames,50010,Primary Stroke Center,DNV GL,483,42.03244,-93.61231,
Kansas,Salina Regional Health Center,Saline,67402,Primary Stroke Center,HFAP,488,38.83324,-97.61028,
Kansas,HayesMed,Hays,67601,Primary Stroke Center,DNV GL,487,38.87743,-99.32682,
Kentucky,Whitesburg ARH Hospital,Whitesburg,41858,Acute Stroke Ready,DNV GL,492,37.11383,-82.8119,
Kentucky,Saint Joseph Mount Sterling,Mount Sterling,40353,Stroke Ready Hospital,HFAP,493,38.07703,-83.94568,
Kentucky,Middlesboro ARH Hospital,Middlesboro,40965,Acute Stroke Ready,DNV GL,491,36.60744,-83.71188,
Kentucky,Highlands Regional Medical Center,Prestonburg,41653,Acute Stroke Ready,DNV GL,490,37.72921,-82.7675,
Kentucky,Harlan ARH Hospital,Harlan,40831,Acute Stroke Ready ,DNV GL,489,36.84385614,-83.31767647,
Louisiana,Winn Parish Medical Center,Winnfield,71483,Acute Stroke Ready Hospital,State,796,31.92482,-92.64549,
Louisiana,Willis-Knighton South & Center for Women's Health,Shreveport,71118,Acute Stroke Ready Hospital,State,610,32.40414,-93.79532,
Louisiana,Willis-Knighton Bossier Health Center,Bossier City,71111,Acute Stroke Ready Hospital,State,609,32.55831,-93.71736,
Louisiana,Willis Knighton Medical Center,Shreveport,71103,Primary Stroke Center,The Joint Commission,764,32.48296,-93.78217,
Louisiana,West Jefferson Medical Center,Marrero,70072,Comprehensive Stroke Center,The Joint Commission,763,29.89141,-90.09437,
Louisiana,West Feliciana Parish Hospital,Francisville,70775,Acute Stroke Ready Hospital,State,772,30.77912,-91.37904,
Louisiana,West Calcasieu Cameron Hospital,Sulphur ,70663,Acute Stroke Ready Hospital,State,792,30.22983,-93.36866,
Louisiana,University Medical Center - New Orleans,New Orleans,70112,Primary Stroke Center,The Joint Commission,762,29.96073,-90.08089,
Louisiana,University Hospital & Clinics,Lafayette,70506,Acute Stroke Ready Hospital,State,790,30.21698,-92.04616,
Louisiana,Union General Hospital,Farmerville,71241,Acute Stroke Ready Hospital,State,616,32.78735,-92.39236,
Louisiana,Tulane University Hospital and Clinic,New Orleans,70112,Comprehensive Stroke Center,The Joint Commission,760,29.95742,-90.07655,
Louisiana,Tulane Lakeside,Metairie,70001,Acute Stroke Ready Hospital,State,766,29.98135,-90.174035,
Louisiana,Touro Infirmary,New Orleans,70115,Primary Stroke Center,The Joint Commission,759,29.9305,-90.0965,
Louisiana,Thibodaux Regional Medical Center,Thibodaux,80301,Acute Stroke Ready Hospital,State,780,29.78099,-90.806,
Louisiana,Terrebonne General Medical Center,Houma,70360,Acute Stroke Ready Hospital,State,779,29.59771,-90.71384,
Louisiana,St. Tammany Parish Hospital,Covington,70433,Primary Stroke Center,The Joint Commission,758,30.46859,-90.11335,
Louisiana,St. Martin Hospital,Breaux Bridge,70517,Acute Stroke Ready Hospital,State,789,30.28272,-91.88986,
Louisiana,St. James Parish Hospital,Lutcher,70071,Acute Stroke Ready Hospital,State,778,30.05156,-90.70249,
Louisiana,St. Francis Medical Center,Monroe,71201,Acute Stroke Ready Hospital,State,615,32.49997,-92.11359,
Louisiana,St. Charles Parish Hospital,Luling,70070,Acute Stroke Ready Hospital,State,777,29.92468,-90.3709,
Louisiana,St. Bernard Parish Hospital,Chalmette,70043,Acute Stroke Ready Hospital,State,765,29.95504,-89.98901,
Louisiana,Springhill Medical Center,Springhill,71075,Acute Stroke Ready Hospital,State,608,33.0105,-93.44353,
Louisiana,Slidell Memorial Hospital,Slidell,70458,Primary Stroke Center,The Joint Commission,757,30.28371,-89.76968,
Louisiana,Sabine Medical Center,Many,71449,Acute Stroke Ready Hospital,State,553,31.56057,-93.47209,
Louisiana,Riverside Medical Center,Franklinton,70438,Acute Stroke Ready Hospital,State,621,30.83356,-90.15352,
Louisiana,Rapides Regional Medical Center,Alexandria,71301,Primary Stroke Center,The Joint Commission,756,31.31494,-92.44946,
Louisiana,Prevost Memorial Hospital,Donaldsonville,70346,Acute Stroke Ready Hospital,State,771,30.08887,-91.00312,
Louisiana,Pointe Coupee General Hospital,New Roads,70760,Acute Stroke Ready Hospital,State,770,30.68362,-91.46125,
Louisiana,Our Lady of the Angels,Bogalusa,70427,Acute Stroke Ready Hospital,State,620,30.77803,-89.86898,
Louisiana,Our Lady of Lourdes Regional Medical Center,Lafayette,70508,Primary Stroke Center,The Joint Commission,707,30.15051,-92.03698,
Louisiana,Our Lady of Lourdes Heart Hospital,Lafayette,70508,Acute Stroke Ready Hospital,State,784,30.1713886,-92.0410074,
Louisiana,Our Lady of Lake Regional Medical Center,Baton Rouge,70808,Primary Stroke Center,The Joint Commission,498,30.40319,-91.10669,
Louisiana,Opelousas General Health System South Campus,Opelousas,70570,Acute Stroke Ready Hospital,State,788,30.54359,-92.07548,
Louisiana,OLOL Ascension,Gonzales,70737,Acute Stroke Ready Hospital,State,769,30.23772275,-90.91618724,
Louisiana,Ochsner St. Anne General Hospital,Raceland,70394,Acute Stroke Ready Hospital,State,776,29.69838501,-90.66395459,
Louisiana,Ochsner Medical Center - North Shore,Slidell ,70461,Acute Stroke Ready Hospital,State,619,30.28793,-89.74555,
Louisiana,Ochsner Medical Center - Kenner,Kenner,70065,Primary Stroke Center,The Joint Commission,658,30.02463,-90.27053,
Louisiana,Ochsner Medical Center - Baton Rouge,Baton Rouge,70816,Acute Stroke Ready Hospital,State,768,30.44098,-90.99903,
Louisiana,Ochsner Medical Center,New Orleans,70121,Comprehensive Stroke Center,The Joint Commission,606,29.96255,-90.14479,
Louisiana,Ochsner LSU Health Shreveport,Shreveport,71103,Thrombectomy Capable Stroke Center,The Joint Commission,761,32.48153,-93.76174,
Louisiana,Ochsner LSU Health Monroe,Monroe,71202,Acute Stroke Ready Hospital,State,614,32.45071,-92.10599,
Louisiana,North Oaks Medical Center,Hammond,70403,Primary Stroke Center,The Joint Commission,555,30.46594,-90.46081,
Louisiana,New Orleans East Hospital,New Orleans,70127,Primary Stroke Center,The Joint Commission,755,30.0446811,-89.9793868,
Louisiana,Natchitoches Regional Medical Center,Natchitoches,71457,Acute Stroke Ready Hospital,State,800,31.75339,-93.07923,
Louisiana,Morehouse General Hospital,Bastrop ,71220,Acute Stroke Ready Hospital,State,613,32.77514,-91.91709,
Louisiana,Minden Medical Center,Minden,71055,Acute Stroke Ready Hospital,State,799,32.61719,-93.28635,
Louisiana,Mercy Regional Medical Center,Ville Platte,70586,Acute Stroke Ready Hospital,State,787,30.68265,-92.26612,
Louisiana,Leonard J. Chabert Medical Center,Houma,70363,Acute Stroke Ready Hospital,State,775,29.56982,-90.68845,
Louisiana,Lane Regional Medical Center,Zachary,70791,Acute Stroke Ready Hospital,State,767,30.64952,-91.13747,
Louisiana,Lakeview Regional Medical Center,Covington,70433,Primary Stroke Center,The Joint Commission,618,30.41096,-90.08005,
Louisiana,Lake Charles Memorial Hospital,Lake Charles,70601,Primary Stroke Center,The Joint Commission,500,30.20457,-93.19773,
Louisiana,Lafayette General Orthopedic Hospital,Lafayette,70506,Acute Stroke Ready Hospital,State,786,30.19831,-92.07699,
Louisiana,Lafayette General Medical Center,Lafayette,70503,Primary Stroke Center,The Joint Commission,499,30.20241,-92.01887,
Louisiana,Lady of the Sea General Hospital,Cut Off,70345,Acute Stroke Ready Hospital,State,774,29.45704,-90.31079,
Louisiana,Jennings American Legion Hospital,Jennings,70546,Acute Stroke Ready Hospital,State,791,30.23925,-92.66289,
Louisiana,Jackson Parish Hospital,Jonesboro,71251,Acute Stroke Ready Hospital,State,612,32.25248,-92.71985,
Louisiana,Iberia Medical Center,New Iberia,70560,Acute Stroke Ready Hospital,State,785,29.9895,-91.78566,
Louisiana,Hood Memorial Hospital,Amite City,70422,Acute Stroke Ready Hospital,State,617,30.7327,-90.5131,
Louisiana,Hardtner Medical Center,Olla,71465,Acute Stroke Ready Hospital,State,795,31.86025,-92.27553,
Louisiana,Glenwood Regional Medical Center,West Monroe,71291,Acute Stroke Ready Hospital,State,611,32.51328,-92.1563,
Louisiana,Franklin Foundation Hospital,Franklin,70538,Acute Stroke Ready Hospital,State,773,29.80127,-91.52399,
Louisiana,East Jefferson General Hospital,Metairie,70006,Thrombectomy Capable Stroke Center,The Joint Commission,497,30.01434,-90.18152,
Louisiana,CHRISTUS St. Frances Cabrini Hospital,Alexandria,71301,Primary Stroke Center,The Joint Commission,495,31.28283,-92.46132,
Louisiana,CHRISTUS Ochsner Lake Area Hospital,Lake Charles,70601,Primary Stroke Center,The Joint Commission,496,30.18127,-93.2499,
Louisiana,CHRISTUS Health Shreveport-Bossier,Shreveport,71105,Acute Stroke Ready Hospital,State,798,32.42593,-93.7177,
Louisiana,CHRISTUS Coushatta Health Care Center,Coushatta,71019,Acute Stroke Ready Hospital,State,797,32.0205,-93.34379,
Louisiana,Byrd Regional Hospital,Leesville,71446,Acute Stroke Ready Hospital,State,794,31.13831,-93.26874,
Louisiana,Baton Rouge General Medical Center,Baton Rouge,70809,Primary Stroke Center,The Joint Commission,494,30.39411,-91.09504,
Louisiana,Avoyelles Hospital,Markesville ,71351,Acute Stroke Ready Hospital,State,793,31.14364,-92.0633,
Louisiana,Acadia General Hospital,Crowley,70526,Acute Stroke Ready Hospital,State,783,30.22603,-92.36327,
Louisiana,Abrom Kaplan Memorial Hospital,Kaplan ,70548,Acute Stroke Ready Hospital,State,782,30.00765,-92.29703,
Louisiana,Abbeville General Hospital,Abbeville,70510,Acute Stroke Ready Hospital,State,781,29.97353,-92.1075,
Maine,Mid Coast Hospital,Brunswick,4011,Primary Stroke Center          ,The Joint Commission,623,43.90605,-69.89155,
Maine,MaineHealth,Rockport,4856,Primary Stroke Center,The Joint Commission,624,44.1857966,-69.0764053,
Maine,Maine Health,Portland,4102,Comprehensive Stroke Center    ,The Joint Commission,622,43.64408299,-70.33269948,
Maine,Eastern Maine Medical Center,Bangor,4401,Primary Stroke Center,The Joint Commission,625,44.83707,-68.74687,
Maine,Central Maine Medical Center,Lewiston,4240,Primary Stroke Center,The Joint Commission,626,44.10216,-70.21447,
Maryland,University of Maryland Medical Center,Baltimore,21201,Comprehensive Stroke Center,The Joint Commission,629,39.28816,-76.6247,
Maryland,The Johns Hopkins Hospital,Baltimore,21287,Comprehensive Stroke Center,The Joint Commission,628,39.2973,-76.5933,
Maryland,Suburban Hospital System,Bethesda,20814,Primary Stroke Center,The Joint Commission,635,38.98736,-77.0987,
Maryland,Sinai Hospital of Baltimore,Baltimore,21215,Thrombectomy Capable Stroke Center,The Joint Commission,645,39.34694,-76.68344,
Maryland,Saint Agnes Hospital,Baltimore,21229,Primary Stroke Center,The Joint Commission,639,39.27158,-76.6731,
Maryland,Peninsula Regional Medical Center,Salisbury,21801,Primary Stroke Center,The Joint Commission,641,38.36187,-75.59889,
Maryland,Montgomery General Hospital,Olney,20832,Primary Stroke Center,The Joint Commission,640,39.151625,-77.06686,
Maryland,Mercy Medical Center,Baltimore,21202,Primary Stroke Center,The Joint Commission,638,39.29403,-76.61316,
Maryland,Medstar Union Memorial Hospital,Baltimore,21218,Primary Stroke Center,The Joint Commission,644,39.32988,-76.61441,
Maryland,Medstar Good Samaritan Hospital of Maryland,Baltimore,21239,Primary Stroke Center,The Joint Commission,634,39.35889,-76.58873,
Maryland,Johns Hopkins Bayview Medical Center,Baltimore,21224,Comprehensive Stroke Center,The Joint Commission,630,39.28978,-76.54689,
Maryland,Holy Cross Health,Silver Spring,20910,Primary Stroke Center,The Joint Commission,642,39.01494,-77.03524,
Maryland,Harbor Hospital,Baltimore,21225,Primary Stroke Center,The Joint Commission,643,39.22585088,-76.59614504,
Maryland,Greater Baltimore Medical Center,Baltimore,21204,Primary Stroke Center,The Joint Commission,633,39.39073,-76.62504,
Maryland,Garrett County Memorial Hospital,Oakland,21550,Acute Stroke Ready Hospital             ,The Joint Commission,627,39.3991367,-79.3828073,
Maryland,Franklin Square Hospital Center,Baltimore,21237,Primary Stroke Center,The Joint Commission,632,39.3585616,-76.465229,
Maryland,Dimensions Health Corporation,Cheverly,20785,Primary Stroke Center,The Joint Commission,637,38.92631662,-76.91118706,
Maryland,Baltimore Washington Medical Center,Glen Burnie,21061,Primary Stroke Center,The Joint Commission,636,39.13825,-76.62339,
Maryland,Anne Arundel Medical Center,Annapolis,21401,Primary Stroke Center,The Joint Commission,631,38.99043,-76.53461,
Massachusetts,Winchester Hospital,Winchester,1890,Primary Stroke Service,State,866,42.4659,-71.12136,
Massachusetts,UMass Memorial Medical Center – University Campus,Worcester,1655,Comprehensive Stroke Center,The Joint Commission,864,42.27625,-71.76208,
Massachusetts,Tufts Medical Center,Boston,2111,Comprehensive Stroke Center,The Joint Commission,863,42.34855,-71.0637,
Massachusetts,Sturdy Memorial Hospital,Attleboro,2703,Primary Stroke Service,State,861,41.94238,-71.27408,
Massachusetts,Steward Satellite Emergency Facility - Quincy,Quincy,2169,Primary Stroke Service,State,860,42.249175,-70.999095,
Massachusetts,St. Vincent Hospital,Worcester,1608,Primary Stroke Center,The Joint Commission,858,42.26603,-71.79551,
Massachusetts,St. Elizabeth's Medical Center,Brighton,2135,Primary Stroke Service,State,810,42.34958,-71.14798,
Massachusetts,St. Anne's Hospital,Fall River,2721,Primary Stroke Service,State,1200,41.69259,-71.16403,
Massachusetts,Southcoast Hospital Group – St. Luke’s,New Bedford,2740,Primary Stroke Service,State,1198,41.63739,-70.933845,
Massachusetts,Southcoast Hospital Group - Tobey,Wareham,2571,Primary Stroke Service,State,1199,41.743685,-70.71722,
Massachusetts,Southcoast Hospital Group - Charlton,Fall River,2720,Primary Stroke Service,State,1197,41.70701,-71.15081,
Massachusetts,South Shore Hospital,South Weymouth,2190,Primary Stroke Service,State,1196,42.17573,-70.95421,
Massachusetts,Signature Healthcare Brockton Hospital,Brockton,2302,Primary Stroke Service,State,1168,42.083935,-71.009585,
Massachusetts,Norwood Hospital,Norwood,2062,Primary Stroke Service,State,1165,42.18886,-71.20171,
Massachusetts,North Shore Medical Center - Union Hospital,Lynn,1904,Primary Stroke Service,State,1162,42.50207,-70.97942,
Massachusetts,North Shore Medical Center - Salem Hospital,Salem,1970,Primary Stroke Service,State,1135,42.51077,-70.90711,
Massachusetts,North Adams Campus of BMC,North Adams,1247,Primary Stroke Service,State,1130,42.69991,-73.11504,
Massachusetts,Newton-Wellesley Hospital,Newton,2462,Primary Stroke Service,State,1125,42.33179,-71.24543,
Massachusetts,Nashoba Valley Medical Center,Ayer,1432,Primary Stroke Service,State,1120,42.57751,-71.57547,
Massachusetts,Mount Auburn Hospital,Cambridge,2138,Primary Stroke Service,State,1115,42.37424,-71.13432,
Massachusetts,Morton Hospital,Taunton,2780,Primary Stroke Service,State,1099,41.90590628,-71.10185643,
Massachusetts,Milford Regional Medical Center,Milford,1757,Primary Stroke Service,State,1093,42.13316,-71.52799,
Massachusetts,Metrowest Medical Center - Leonard Morse Campus,Natick,1760,Primary Stroke Service,State,1090,42.2838544,-71.3469841,
Massachusetts,Mercy Medical Center Campus,Springfield,1104,Primary Stroke Service,State,1088,42.138815,-72.56829,
Massachusetts,Melrose Wakefield Healthcare - Melrose-Wakefield,Melrose,2176,Acute Stroke Ready Hospital,The Joint Commission,1086,42.46023,-71.06111,
Massachusetts,Melrose Wakefield Healthcare - Lawrence Memorial,Medford,2155,Primary Stroke Service,State,1076,42.42191,-71.09532,
Massachusetts,Mass General Hospital,Boston,2114,Comprehensive Stroke Center,The Joint Commission,1072,42.36278,-71.06867,
Massachusetts,Martha's Vineyard Hospital,Oak Bluffs,2557,Primary Stroke Service,State,1067,41.46076,-70.58058,
Massachusetts,Marlborough Hospital,Marlborough,1752,Primary Stroke Service,State,1063,42.34691,-71.5472,
Massachusetts,Lowell General Hospital - Saints Campus,Lowell,1852,Primary Stroke Service,State,1060,42.64571,-71.30119,
Massachusetts,Lowell General Hospital,Lowell,1854,Primary Stroke Service,State,1058,42.64732,-71.34104,
Massachusetts,Lawrence General Hospital,Lawrence,1841,Primary Stroke Service,State,1055,42.71019,-71.15039,
Massachusetts,Lahey Hospital & Medical Center,Burlington,1805,Comprehensive Stroke Center,DNV GL,1046,42.48512,-71.20485,
Massachusetts,Holyoke Medical Center,Holyoke,1040,Primary Stroke Service,State,1044,42.20033,-72.62747,
Massachusetts,Holy Family Hospital at Merrimack Valley,Haverhill,1830,Primary Stroke Service,State,1042,42.780781,-71.0802643,
Massachusetts,Holy Family Hospital,Methuen,1844,Primary Stroke Service,State,1009,42.7258,-71.16858,
Massachusetts,Heywood Hospital,Gardner,1440,Primary Stroke Service,State,999,42.58148626,-71.98780837,
Massachusetts,"Health Alliance-Clinton, Leominster Campus",Leominster,1453,Primary Stroke Service,State,995,42.54102,-71.76128,
Massachusetts,"Health Alliance-Clinton, Clinton Campus",Clinton,1510,Primary Stroke Service,State,989,42.4181088,-71.6853806,
Massachusetts,Harrington Memorial Hospital,Southbridge,1550,Primary Stroke Service,State,986,42.075805,-72.03868,
Massachusetts,Harrington Healthcare At Hubbard,Webster,1570,Primary Stroke Service,State,980,42.02795,-71.85019,
Massachusetts,Good Samaritan Medical Center,Brockton,2301,Primary Stroke Service,State,973,42.09814,-71.06573,
Massachusetts,Falmouth Hospital,Falmouth,2540,Primary Stroke Service,State,969,41.56421,-70.62236,
Massachusetts,Fairview Hospital,Great Barrington,1230,Primary Stroke Service,State,962,42.20616365,-73.34328471,
Massachusetts,Emerson Hospital,Concord,1742,Primary Stroke Service,State,955,42.45216,-71.37642,
Massachusetts,Cooley Dickinson Hospital,Northhampton,1060,Primary Stroke Service,State,951,42.3199027,-72.6301522,
Massachusetts,CHA Somerville Hospital,Somerville,2143,Primary Stroke Service,State,944,42.38959,-71.10971,
Massachusetts,CHA Everett Hospital,Everett,2149,Primary Stroke Service,State,936,42.4094,-71.03887,
